	mean	std	min	25%	50%	75%	max	dif_max_abs	digit_dif_max_abs	gauge_name	gauge_lat	gauge_lon	area_ana	area_gsim	area_gsim_quality	p_mean	pet_mean	et_mean	aridity	p_seasonality	asynchronicity	frac_snow	high_prec_freq	high_prec_dur	high_prec_timing	low_prec_freq	low_prec_dur	low_prec_timing	q_mean	runoff_ratio	stream_elas	slope_fdc	baseflow_index	hfd_mean	Q5	Q95	high_q_freq	high_q_dur	low_q_freq	low_q_dur	zero_q_freq	elev_gauge	elev_mean	slope_mean	area	crop_perc	crop_mosaic_perc	forest_perc	shrub_perc	grass_perc	barren_perc	imperv_perc	wet_perc	snow_perc	dom_land_cover	dom_land_cover_perc	geol_class_1st	geol_class_1st_perc	geol_class_2nd	geol_class_2nd_perc	carb_rocks_perc	geol_porosity	geol_permeability	sand_perc	silt_perc	clay_perc	org_carbon_content	bedrock_depth	water_table_depth	q_quality_control_perc	q_stream_stage_perc	consumptive_use	consumptive_use_perc	reservoirs_vol	regulation_degree
12400000	-6.016087016677705e-06	0.03701795267805349	-0.0345893676022413	-0.0198385637150676	-0.0098667747847407	0.0064575268243714	0.0909782343430576	0.0909782343430576	1.0	serra_do_moa	-7.4483	-73.6644	1030.0	999.6329	high																																																												
13880000	-5.8998094361498475e-06	0.1093000628989045	-0.0873109266604176	-0.055652645621023	-0.0304682678868655	-0.0042667368582558	0.2768386391791134	0.2768386391791134	1.0	canutama	-6.5389	-64.3858	236000.0	237654.6	high	5.55522	3.12795	3.86475	0.56306	0.56388	0.14555	0.0	1.75	1.0	djf	95.75	3.41355	jja	2.2888	0.41201	0.979	4.18361	0.81607	209.0	0.3955	4.6067	0.0	0.0	45.4	43.2381	0.0	43.0	189.8427	10.3691	237654.6	0.0009	1.0282	95.1955	1.4244	0.5053	0.0	0.0005	1.8453	0.0	forest	95.1955	siliciclastic_sedimentary_rocks	58.86	unconsolidated_sediments	30.13	0.0	0.1919	-11.0928	36.2074	30.6839	33.1165	15.0131	2526.3411	193.8999	100.0	100.0	0.312	0.0374	8.0	0.004
14110000	-7.172623530556397e-06	0.05908374704564073	-0.1430027540398123	0.0096555439416967	0.0186512995824782	0.0294214052347941	0.0434830724141513	0.1430027540398123	1.0	cucui	1.2153	-66.8525	74300.0	74513.71	high	8.53279	3.06426	4.30217	0.35912	-0.37261	0.13868	0.0	0.9	1.0	jja	41.7	1.75579	djf	5.86307	0.68731	0.82931	1.74231	0.81301	253.57895	1.3112	11.652	0.0	0.0	15.61412	23.92308	0.0	80.0	233.3013	21.7262	74513.71	0.0017	1.5542	90.4003	0.6471	0.0326	0.0037	0.0	7.36	0.0004	forest	90.4003	acid_plutonic_rocks	51.9	metamorphics	24.38	0.0	0.0554	-13.7294	52.6391	19.942	27.4226	24.4567	1755.7344	82.5	84.997	74.073	0.0104	0.0005	0.0	0.0
14230000	-7.27929187048952e-06	0.06303923291228411	-0.0727354847061697	-0.044082533865414	-0.0090927740197083	0.0179464835174862	0.1146539666001696	0.1146539666001696	1.0	missao_icana	1.0744	-67.5947	23600.0	23497.75	high	9.81837	2.97093	4.3223	0.30259	-0.26914	0.12715	0.0	2.45	1.04255	jja	56.9	1.6119	djf	6.97804	0.71071	0.98189	1.51743	0.81639	239.55	2.4915	12.3288	0.0	0.0	2.9	14.5	0.0	78.0	160.6365	10.1185	23497.75	0.0	1.5804	93.5936	1.2116	0.0723	0.0	0.0	3.5422	0.0	forest	93.5936	metamorphics	40.76	acid_plutonic_rocks	30.92	0.0	0.0694	-12.9105	56.0614	20.5835	23.3626	15.0053	2047.7176	7.2	80.0	81.533	0.0105	0.0004	0.0	0.0
14250000	-6.9635943288649344e-06	0.05643011727470077	-0.1243865711639791	-0.0010839914487684	0.0182742565846137	0.021915297945853	0.0721838423906691	0.1243865711639791	2.0	sao_felipe	0.3717	-67.3128	124000.0	123844.4	high	8.97833	3.03108	4.30978	0.3376	-0.3057	0.1301	0.0	0.65	1.0	jja	31.65	1.65274	djf	5.78111	0.6439	1.25387	1.5995	0.82389	246.25	1.757	10.863	0.0	0.0	6.75	19.28571	0.0	80.0	194.0205	16.425	123844.4	0.001	1.6917	91.6548	0.7297	0.0421	0.0022	0.0	5.8783	0.0002	forest	91.6548	acid_plutonic_rocks	44.23	metamorphics	28.73	0.0	0.0641	-13.3687	53.8648	20.533	25.6076	21.7934	1856.9586	39.3998	89.993	91.239	0.0105	0.0005	0.0	0.0
14260000	-6.865067106065878e-06	0.044587590226944376	-0.0439625449596216	-0.0300836314989722	-0.0237000299489977	0.0322218992563858	0.0703715151179363	0.0703715151179363	2.0	uaracu	0.4769	-69.1281	40200.0	39726.65	high	9.50349	2.98663	4.22307	0.31427	-0.28483	0.134	0.0	1.95	1.0	jja	53.65	1.91266	djf	5.31983	0.55952	0.33147	1.65955	0.79751	248.21053	1.1309	10.0653	0.0	0.0	16.81907	11.16667	0.0	85.0	215.326	10.5374	39726.65	0.0084	1.9332	93.5604	0.3872	0.0841	0.0	0.0	4.0268	0.0	forest	93.5604	siliciclastic_sedimentary_rocks	54.15	metamorphics	25.24	5.89	0.1287	-13.9088	53.0204	19.5341	27.4467	16.5533	2078.9496	5.2999	79.589	72.676	0.0105	0.0005	0.0	0.0
14280001	-6.848564540886146e-06	0.050813855967677825	-0.0432020863937642	-0.038516920869472	-0.031827510284541	0.0539159238755727	0.0823530210232142	0.0823530210232142	2.0	taraqua	0.1303	-68.5386	44300.0	43867.04	high	9.46242	2.98801	4.22936	0.31578	-0.27048	0.13053	0.0	1.65	1.0	jja	48.8	1.87692	djf	5.44826	0.57578	1.9201	1.50662	0.79733	246.1	1.3748	10.34618	0.0	0.0	12.55	13.21053	0.0	73.0	206.6952	10.3668	43867.04	0.0076	1.7931	93.6295	0.4203	0.079	0.0	0.0	4.0705	0.0	forest	93.6295	siliciclastic_sedimentary_rocks	49.04	metamorphics	22.88	5.34	0.1329	-13.7183	53.2452	19.7387	27.018	17.2327	2102.5795	8.3	89.993	90.007	0.0105	0.0005	0.0	0.0
14300000	-7.310903481444707e-06	0.07900099724668105	-0.0870390129604515	-0.0537067347761708	-0.0047675555208619	0.0191198818163377	0.1858761762007378	0.1858761762007378	1.0	pari_cachoeira	0.2494	-69.785	1970.0	1997.458	high																																																												
14330000	-6.600006600007702e-06	0.08107362764689584	-0.1040893157588791	-0.0377200045863834	-0.0126816956461178	0.0166823453874866	0.1846842900503045	0.1846842900503045	1.0	curicuriari	-0.2006	-66.8022	194000.0	193303.7	high	9.07916	3.01794	4.28757	0.3324	-0.26986	0.12491	0.0	0.35	1.0	jja	23.75	1.79924	djf	5.73984	0.6322	1.4306	1.41012	0.83283	242.1	2.0788	10.2967	0.0	0.0	3.2	10.66667	0.0	64.0	187.5934	14.0643	193303.7	0.0024	1.617	92.4099	0.6622	0.0483	0.0014	0.0	5.2587	0.0001	forest	92.4099	acid_plutonic_rocks	33.64	metamorphics	26.18	1.21	0.0871	-13.3132	53.7106	20.6235	25.6713	20.8802	1951.5816	26.3	89.993	91.677	0.0105	0.0005	0.0	0.0
14420000	-6.605107068779477e-06	0.09702026805070477	-0.0900142812282443	-0.0540197020107491	-0.0327274124395818	-0.0055720191541836	0.2115131026596426	0.2115131026596426	1.0	serrinha	-0.4819	-64.8289	293000.0	292387.1	high																																																												
14495000	-6.8671885730544795e-06	0.021252159007236156	-0.0313352293244965	-0.0125557825123962	0.0027071040653076	0.0094987823177397	0.0384632058193314	0.0384632058193314	1.0	fazenda_cajupiranga	3.4381	-61.0367	36900.0	36087.5	high																																																												
14515000	-6.5183099325780965e-06	0.015436842474892472	-0.0245643271223638	-0.0060969190270638	-0.0016049106000365	0.0010004753233568	0.0237178397145911	0.0245643271223638	5.0	fazenda_passarao	3.2078	-60.5711	50200.0	49360.72	high	5.69194	3.2531	3.89561	0.57153	-0.62206	0.18762	0.0	8.1	1.03846	mam	137.2	2.81148	djf	2.76839	0.48449	1.60483	2.14513	0.75878	258.125	0.5529	6.8798	0.0	0.0	18.37409	11.41935	0.0	85.0	417.0651	42.7683	49360.72	0.0	3.9795	81.3918	12.4371	0.8386	0.0	0.0	1.353	0.0	forest	81.3918	metamorphics	46.21	acid_plutonic_rocks	26.22	0.0	0.0422	-13.6565	42.4019	21.1608	36.4416	17.2532	2361.676	690.8264	86.324	89.678	0.3701	0.0366	20.0	0.0401
14550000	-6.370684657512153e-06	0.014820736671676972	-0.0281672010994494	-0.0040795335132605	4.543035432968967e-05	0.0043002057039948	0.0275181179298572	0.0281672010994494	1.0	maloca_do_contao	4.1675	-60.5289	5780.0	5889.645	high																																																												
14680001	-6.086279092431897e-06	0.033742631069102226	-0.0755698729645946	-0.009741479502596	-0.0003385512432337	0.0198443237664046	0.0375115470270004	0.0755698729645946	1.0	fe_e_esperanca	2.8708	-61.4406	12200.0	12473.34	high	5.61945	3.05247	4.13321	0.5432	-0.62398	0.1756	0.0	11.95	1.03463	mam	163.4	2.85914	djf	2.29523	0.40526	1.39007	1.95911	0.77333	241.42105	0.4918	5.2297	0.0	0.0	14.19339	9.26667	0.0	81.0	395.7454	36.665	12473.34	0.0	1.0992	97.5614	0.0859	0.0091	0.0	0.0	1.2444	0.0	forest	97.5614	metamorphics	88.88	acid_plutonic_rocks	7.6	0.0	0.0101	-14.0349	40.4319	19.4425	40.1456	15.2515	2083.746	872.6947	87.926	89.186	0.1372	0.0164	0.0	0.0
14710000	-5.380162265688586e-06	0.015939774511238014	-0.0294710769909902	-0.0130675707172447	0.007861239154407	0.0100110839930492	0.0166286510046763	0.0294710769909902	2.0	caracarai	1.8214	-61.1236	126000.0	125721.1	high																																																												
15030000	0.01560984852049526	0.14931480905384087	-0.1510328093224518	-0.07580515291272527	0.008781844677451002	0.03864627076390588	0.3412576369719519	0.3412576369719519	1.0	jatuarana	-3.0633	-59.6478	2930000.0	2930404.0	high	6.55525	3.02733	3.81908	0.46182	0.04393	0.12295	0.0	0.0	0.0		6.1	1.60526	jja	3.83614	0.5852	0.3373	1.05579	0.91758	223.2	2.11942	5.4386	0.0	0.0	0.0	0.0	0.0	6.0	512.2986	40.9004	2930404.0	0.4134	2.7874	83.0399	4.4078	2.0944	0.1479	0.011	7.043	0.0554	forest	83.0399	unconsolidated_sediments	39.46	siliciclastic_sedimentary_rocks	23.93	3.14	0.1686	-12.5255	42.0387	26.9335	31.0332	32.4873	2136.9876	88.2	89.993	94.469	0.1456	0.0104	1934.0	0.0471
15050000	-6.139753059152372e-06	0.1393222858518065	-0.2540608847616217	-0.0142605573673282	0.0168823415784274	0.0832213621194747	0.2152411722712716	0.2540608847616217	1.0	pontes_e_lacerda	-15.2153	-59.3539	2990.0	3014.532	high																																																												
15120001	-6.369589034122686e-06	0.07124760459762523	-0.1211400621624907	-0.0238652030252304	-0.0133418896449956	0.0021647755070643	0.135036039819125	0.135036039819125	3.0	mato_grosso	-15.0092	-59.9581	22500.0	17782.69	low																																																												
15250000	-5.626448810577718e-06	0.08589716243109069	-0.0551169831796432	-0.0408030654690652	-0.0263857201552232	-0.0068442380641526	0.2218583980974123	0.2218583980974123	1.0	guajara-mirim	-10.7925	-65.3478	609000.0	623653.9	high																																																												
15320002	-7.834657390412328e-06	0.04997806921883352	-0.0724303623259471	-0.0207973791741232	-0.014168151962452	-0.0034112117106371	0.0959045859132061	0.0959045859132061	3.0	abuna	-9.7053	-65.3667	921000.0	937350.4	high																																																												
15430000	-5.760335481944216e-06	0.02886944094437115	-0.0586120372420826	-0.0096747491018126	-0.0028169747101922	0.0128919562956796	0.0452100528571985	0.0586120372420826	1.0	ariquemes	-9.9256	-63.0714	8140.0	8172.572	high																																																												
15431000	-7.702142736154163e-06	0.043935204686400164	-0.1031234380596557	-0.0129001496484334	0.0090398012546715	0.026801177435787	0.0415036284844699	0.1031234380596557	1.0	fazenda_rio_branco	-9.8869	-62.9847	988.0	1017.361	high																																																												
15432000	-8.23960779471075e-06	0.02437624112772715	-0.0569810523936809	-0.0016160003858314	0.005355768767607	0.0088424840228237	0.0236708295763496	0.0569810523936809	1.0	mineracao_ponte_massangana	-9.7608	-63.2875	852.0	913.9612	medium																																																												
15550000	-6.422607578748834e-06	0.05664414279369231	-0.0897583193634032	-0.037482089209456	0.0152829718670704	0.0360210660911034	0.0634000311786353	0.0897583193634032	1.0	santa_isabel	-8.7986	-63.7106	12700.0	12376.43	high	5.72703	3.1902	3.72504	0.55704	0.33931	0.20555	0.0	7.55	1.01342	djf	137.85	3.1836	jja	2.40317	0.42294	1.51266	4.40701	0.75814	204.23529	0.3197	6.4068	0.0	0.0	81.61112	50.67742	0.0	68.0	155.1046	19.8123	12376.43	0.6354	27.3856	71.1776	0.5929	0.1319	0.0	0.0	0.0765	0.0	forest	71.1776	metamorphics	63.29	unconsolidated_sediments	19.57	0.0	0.0603	-13.1045	41.8931	19.5843	38.5174	10.5646	2352.7363	489.8935	77.043	80.671	1.5141	0.1726	7.0	0.0645
15558000	-7.1343977854878805e-06	0.03324611102681155	-0.0451037157142147	-0.0246100258499725	-0.0023912387614514	0.0339265983053836	0.0501701949020473	0.0501701949020473	8.0	pimenta_bueno	-11.6836	-61.1922	1010.0	10077.19	high																																																												
15560000	-6.727483114023291e-06	0.042702063800827805	-0.0269855399333499	-0.0234055325043025	-0.0174881969448383	-0.0158929628131922	0.0794185496146989	0.0794185496146989	2.0	ji-parana	-10.8736	-61.9356	32800.0	32964.42	high																																																												
15580000	-6.805359901470283e-06	0.06353095803546817	-0.1122629227173284	-0.0189155704235126	-0.0185632723944474	0.0269339264786832	0.1065183590002012	0.1122629227173284	1.0	tabajara	-8.9322	-62.0556	60200.0	60526.47	high																																																												
15630000	-5.357850858855796e-06	0.04758539576291367	-0.0874607025788236	-0.0160739957257043	-0.0105989492966434	0.0249406630197358	0.0884376738459387	0.0884376738459387	3.0	humaita	-7.5028	-63.0183	1090000.0	1111990.0	high																																																												
15700000	-5.352946529411793e-06	0.05498123304553598	-0.0878970766487093	-0.0209442040475908	-0.0108187659204388	-0.006011862579753	0.0873651712671277	0.0878970766487093	1.0	manicore	-5.8167	-61.3019	1150000.0	1173701.0	high	4.38349	3.056	3.1134	0.69716	0.784	0.1758	0.0	0.95	1.05556	djf	108.05	4.13985	jja	1.90246	0.4303	0.71397	2.53305	0.83465	208.83333	0.431	3.7273	0.0	0.0	10.19232	22.33333	0.0	26.0	570.896	45.9877	1173701.0	1.985	11.0303	71.6771	6.3778	2.5955	0.1928	0.0357	6.053	0.0529	forest	71.6771	mixed_sedimentary_rocks	51.97	unconsolidated_sediments	14.8	0.25	0.162	-12.3613	44.4469	24.3746	31.184	15.5016	2460.1005	402.5092	88.597	95.086	1.0288	0.1482	9127.0	1.1199
15750000	-9.018027036100796e-06	0.050134603822248575	-0.107620369821923	-0.0019779379718256	0.011748216129033	0.0370220440679502	0.0464638601808231	0.107620369821923	1.0	humboldt	-10.1694	-59.4661	15200.0	15312.66	high																																																												
15800000	-6.597263455100682e-06	0.03869487492658109	-0.0352434714365335	-0.0215948444957961	-0.0155354266727758	-0.0024312544218484	0.0761062699229908	0.0761062699229908	3.0	boca_do_guariba	-7.7058	-60.5783	70100.0	70460.28	high	6.05082	3.10724	3.78911	0.51352	-0.08711	0.22197	0.0	3.5	1.0	djf	115.6	4.20364	jja	1.73656	0.2862	3.0543	4.92152	0.74687	198.57895	0.167	4.6986	0.0	0.0	100.2883	60.60606	0.0	60.0	203.6962	22.6079	70460.28	0.0	5.6579	93.8822	0.1123	0.0011	0.0	0.0	0.3465	0.0	forest	93.8822	acid_plutonic_rocks	46.13	siliciclastic_sedimentary_rocks	17.28	0.0	0.0821	-13.0834	43.8507	20.6557	35.4885	11.0579	1861.1443	735.8965	84.709	61.533	0.2884	0.0455	54.0	0.1209
15830000	-6.601182932025462e-06	0.061628964722446396	-0.1273132656259584	-0.0010081282432809	0.0300505383227419	0.0404123851310823	0.0526900872428456	0.1273132656259584	1.0	prainha_velha	-7.2078	-60.65	131000.0	131641.4	high																																																												
15910000	-6.2488673928326926e-06	0.024136716412052606	-0.0569753488144125	-0.0025091025758534	0.0080897057929108	0.0149079502855397	0.0178497306304839	0.0569753488144125	2.0	santarem_sucunduri	-6.7956	-59.0422	12700.0	12688.68	high	6.24857	3.119	3.87893	0.49915	-0.48013	0.2265	0.0	4.95	1.0	djf	122.7	2.93541	jja	2.91953	0.46561	1.31683	5.32531	0.71906	200.88889	0.2152	8.78417	0.0	0.0	112.05787	38.87719	0.0	43.0	169.063	24.8697	12688.68	0.0	0.0326	99.8581	0.0104	0.0	0.0	0.0	0.0988	0.0	forest	99.8581	siliciclastic_sedimentary_rocks	81.16	intermediate_volcanic_rocks	10.43	0.0	0.2062	-13.4994	40.9999	20.285	38.7202	12.3441	2263.572	891.8287	84.216	61.944	0.0516	0.0048	0.0	0.0
16700000	-9.90471662606656e-06	0.00533870875835025	-0.0054651033258739	-0.0037667336568242	-0.0021887735064798	0.00132496648918	0.0089532227427429	0.0089532227427429	3.0	tirios	2.2239	-55.9564	819.0	698.6976	low																																																												
17050001	0.03168558143565173	0.13310745479313052	-0.0777902181773879	-0.05613522353789235	-0.0257662638155565	0.07860317251160914	0.2804196540950729	0.2804196540950729	1.0	obidos	-1.9192	-55.5131	4670000.0	4720020.0	high	5.98117	3.04733	3.65489	0.50949	0.17439	0.14878	0.0	0.0	0.0		5.3	1.60606	jja	3.18105	0.53184	1.11738	1.15021	0.914	223.6	1.721	4.6318	0.0	0.0	0.0	0.0	0.0	10.0	480.0521	39.4279	4720020.0	0.7528	4.7038	81.2571	4.4759	1.9855	0.1413	0.0158	6.6202	0.0476	forest	81.2571	unconsolidated_sediments	30.87	mixed_sedimentary_rocks	22.66	2.01	0.1643	-12.5234	42.3309	25.5788	32.0944	25.693	2229.3997	169.2005	89.993	98.795	0.2768	0.0238	31145.0	0.5683
17090000	-6.088613683578167e-06	0.009295448554349148	-0.011315106937757	-0.0068761237406027	0.0003993663231376	0.004821798215526	0.0163016698238795	0.0163016698238795	4.0	boca_do_inferno	-1.5031	-54.8728	19800.0	19697.75	high	5.63451	3.23278	4.28535	0.57375	-0.83847	0.26105	0.0	12.3	1.10811	mam	153.25	2.9135	son	0.72156	0.12802	3.03285	4.6892	0.67288	248.33333	0.0146	2.87803	20.93423	8.0	128.53618	50.12245	0.0	19.0	356.6417	37.1895	19697.75	0.0	0.3281	98.6184	0.0805	0.1383	0.0	0.0	0.8346	0.0	forest	98.6184	acid_plutonic_rocks	83.44	siliciclastic_sedimentary_rocks	8.12	0.0	0.0328	-13.1566	37.4675	20.1487	42.3616	8.6755	2810.9055	1422.2612	88.2	95.113	0.1712	0.065	0.0	0.0
17093000	0.10647699288700334	0.36478675515355985	-0.1488704545836919	-0.07403260701262915	-0.036424383098997204	0.1440852168006353	0.6476271923296997	0.6476271923296997	1.0	fontanilhas	-11.3583	-58.3428	55900.0	56060.27	high																																																												
17120000	-6.1187901928326365e-06	0.08669637725713347	-0.1722364212342153	-0.0340747022451742	0.0219224477619196	0.0381801446719365	0.1153814127312463	0.1722364212342153	2.0	porto_dos_gauchos	-11.5367	-57.4236	37100.0	37201.39	high																																																												
17200000	-6.210100106797979e-06	0.06147501162059496	-0.0966928617493824	-0.0433380212047676	0.0109422685206492	0.0441586210183241	0.0892180385488428	0.0966928617493824	1.0	porto_roncador	-13.5575	-55.3347	10800.0	10878.8	high	4.89851	3.28497	2.76866	0.67061	0.9733	0.20237	0.0	11.85	1.19697	djf	181.75	5.00689	jja	2.10008	0.4218	1.17544	3.79903	0.68188	169.22222	0.3835	6.3878	3.80308	12.33333	41.01161	18.55814	0.0	350.0	473.7326	22.3925	10878.8	6.3599	34.6557	25.006	31.1494	0.011	0.0263	0.0	2.7918	0.0	crop_mosaic	34.6557	siliciclastic_sedimentary_rocks	92.96	unconsolidated_sediments	5.49	1.55	0.2079	-14.3825	59.1236	13.631	27.2382	8.7165	2703.7123	1039.513	96.578	79.425	0.7023	0.0916	0.0	0.0
17280000	-7.4903000614448695e-06	0.06083390619219834	-0.1446769405980838	-0.0045009178223713	0.0162294363309286	0.0301104746631035	0.0683185160468174	0.1446769405980838	2.0	cachoeirao	-11.6517	-55.7025	34600.0	34826.56	high																																																												
17340000	-6.738499066743711e-06	0.04063389754489023	-0.0882476091900211	-0.0164090466716676	0.0054306542158487	0.0134496201276562	0.0571520670702113	0.0882476091900211	3.0	indeco	-10.1133	-55.5706	52200.0	52574.7	high																																																												
17345000	-7.996481548148663e-06	0.06840830908546956	-0.0517614711707355	-0.0426213324096256	-0.0287729637524708	0.0186380895881735	0.1576961648254035	0.1576961648254035	1.0	base_do_cachimbo	-9.3589	-54.9039	465.0	493.6863	medium	6.293	3.15189	3.5843	0.50086	-0.21056	0.2453	0.0	8.8	1.07317	djf	168.9	3.787	jja	4.41234	0.70232	0.29386	1.52162	0.8004	173.89474	1.9426	9.3042	0.0	0.0	0.0	0.0	0.0	457.0	544.4778	23.8587	493.6863	0.0	2.6631	87.8068	5.9349	0.3234	0.0	0.0	3.2718	0.0	forest	87.8068	siliciclastic_sedimentary_rocks	100.0		0.0	0.0	0.19	-15.2	55.9419	14.3083	29.7296	11.8267	2574.0707	1365.1327	99.589	93.566	0.2468	0.0153	0.0	0.0
17350000	-7.046173575454299e-06	0.0497495935451935	-0.1203590590161278	-0.0057422708257522	0.0044723817685876	0.0291325341540365	0.0552248755421218	0.1203590590161278	1.0	cachimbo	-9.8172	-54.8858	1010.0	1009.803	high	6.00854	3.14312	3.46734	0.52311	0.01465	0.2441	0.0	10.05	1.08065	djf	168.8	3.99527	jja	2.45633	0.40881	1.53395	5.15441	0.66832	178.9	0.2096	7.87576	4.85	3.88	117.1	47.79592	0.0	300.0	446.0865	35.9705	1009.803	0.0	8.4236	84.9024	2.6752	0.0093	0.0	0.0	3.9896	0.0	forest	84.9024	intermediate_volcanic_rocks	70.45	siliciclastic_sedimentary_rocks	29.43	0.0	0.1194	-13.3015	51.6551	17.2768	31.0655	10.292	1717.5154	1599.4112	100.0	97.769	1.0216	0.1139	0.0	0.0
18200000	-5.896678401066734e-06	0.0203275547075289	-0.0375899914183728	-0.0084635332489329	-0.0012135530688322	0.0023875062741922	0.0323681157784747	0.0375899914183728	1.0	arapari	-1.7789	-54.3972	12400.0	12420.47	high	5.14721	3.18853	4.1601	0.61947	-0.90695	0.27298	0.0	13.8	1.1358	mam	167.45	3.03902	son	0.91776	0.17711	1.62759	4.02404	0.68263	246.44444	0.0271	3.22752	7.76581	4.31429	94.42397	31.11864	0.0	16.0	350.7705	40.1595	12420.47	0.0	0.7014	98.5727	0.3201	0.1658	0.0	0.0	0.2399	0.0	forest	98.5727	acid_plutonic_rocks	78.46	siliciclastic_sedimentary_rocks	19.9	0.0	0.0482	-13.7131	36.9133	20.4971	42.5634	8.8804	2947.713	1520.3602	88.09	97.632	0.3215	0.096	0.0	0.0
18250000	-7.0216829569773765e-06	0.007652198182305511	-0.0079944417239311	-0.0041728114313535	-0.0018557886194909	0.0014258395344185	0.0179159092905182	0.0179159092905182	1.0	uruara	-3.6772	-53.5542	2960.0	2983.666	high																																																												
18280000	-9.506426344198932e-06	0.01792886529509812	-0.0170665706025502	-0.0131596403383986	-0.0085398314230981	0.0041337926045376	0.0366910818067418	0.0366910818067418	2.0	apalai	1.2208	-54.6569	7230.0	7108.555	high																																																												
18420000	-6.942708767298075e-06	0.09722086299939899	-0.1649065552316373	-0.0755238721948484	0.0174142165125564	0.0522109209417437	0.132890735956874	0.1649065552316373	2.0	fazenda_itaguacu	-13.1408	-54.4453	3840.0	3862.069	high																																																												
18460000	-6.963594328866091e-06	0.03548821577362285	-0.0578285365688424	-0.0178801809699517	0.0128217622251251	0.0311414816128019	0.036141921159691	0.0578285365688424	2.0	boa_sorte	-6.7358	-51.9953	210000.0	213067.5	high																																																												
18650000	-6.727483114044301e-06	0.03358455744481645	-0.0451373319098257	-0.0148799624438467	0.0050354165208919	0.0067331680622745	0.0703068897804363	0.0703068897804363	1.0	cajueiro	-5.65	-54.5208	35600.0	35728.17	high																																																												
18850000	-6.590220113320742e-06	0.0690626314338107	-0.050324264484931	-0.0409250182896177	-0.0158804404533687	-0.0032901121502362	0.1755417718330532	0.1755417718330532	1.0	altamira	-3.2147	-52.2122	448000.0	452452.1	high	5.40926	3.11404	3.48536	0.57569	-0.30785	0.23034	0.0	1.75	1.09375	djf	99.95	5.04798	jja	1.48547	0.27851	1.71112	4.61022	0.7512	209.58824	0.1852	4.2219	0.0	0.0	90.22009	56.6129	0.0	89.0	315.0084	23.6942	452452.1	1.1687	8.8936	83.8948	3.5996	0.0516	0.0013	0.0	2.3904	0.0	forest	83.8948	metamorphics	28.23	unconsolidated_sediments	27.48	0.0	0.1111	-12.9355	49.0234	17.3487	33.6206	10.0781	2649.1328	786.8968	83.888	92.06	0.4502	0.083	110.0	0.0448
19100000	-8.856297713322732e-06	0.012290067769048663	-0.0199458740724196	-0.0062835185078173	-0.0017860603310618	0.010515425109658	0.0173155151741713	0.0199458740724196	2.0	iratapuru	-0.5544	-52.5797	4470.0	4435.475	high																																																												
19150000	-6.614150313198744e-06	0.021510745731387743	-0.0193458722853944	-0.0145345408866034	-0.004655438852203	0.0001005283294506	0.0489313115566866	0.0489313115566866	1.0	sao_francisco	-0.5692	-52.5692	51500.0	51766.67	high	5.93668	3.21015	4.33831	0.54073	-0.76154	0.25329	0.0	6.95	1.07752	mam	132.75	2.9402	son	1.89225	0.31974	1.53491	2.60583	0.7707	245.36842	0.2554	4.8435	0.0	0.0	39.01363	33.73913	0.0	37.0	275.5607	32.3007	51766.67	0.0033	0.6386	93.4055	4.2048	0.1309	0.0	0.0	1.6168	0.0	forest	93.4055	acid_plutonic_rocks	54.93	metamorphics	37.67	0.0	0.0166	-13.1449	36.9631	20.2425	42.7859	8.8287	3413.0655	949.7308	89.446	97.81	0.0626	0.0091	0.0	0.0
20050000	-6.4300411522779365e-06	0.03953667047127028	-0.0770750553519775	-0.0059956611562046	0.0127747724708937	0.0217106177767942	0.0361227821137966	0.0770750553519775	2.0	ponte_quebra_linha	-14.9775	-48.6739	11200.0	11248.35	high																																																												
20200000	-5.094269456288878e-06	0.0026044786016421913	-0.0032030789753026	-0.0019722445838745	-0.0009943453807634	0.0027040411927584	0.0038638094877142	0.0038638094877142	2.0	uruana	-15.4961	-49.6908	3700.0	3668.815	high	4.48439	3.0556	2.61349	0.68139	0.60604	0.1575	0.0	16.15	1.25194	djf	211.85	5.25682	jja	1.42322	0.31737	2.61281	2.58382	0.70948	175.25	0.2378	4.0748	0.95	2.375	28.4	13.2093	0.0	568.0	729.731	36.1815	3668.815	49.6297	23.6081	24.7076	2.0372	0.0	0.0	0.0	0.0175	0.0	crop	49.6297	acid_plutonic_rocks	46.61	metamorphics	39.77	0.0	0.0279	-12.993	43.2841	17.8375	38.85	9.5785	3213.0094	1790.6549	100.0	99.891	14.7654	2.8424	0.0	0.0
20250000	-6.195211101822389e-06	0.010412985505113348	-0.0136589334950377	-0.0109328733370222	0.0047025038636348	0.0082692683565627	0.0115909870162168	0.0136589334950377	1.0	uhe_serra_da_mesa_ceres	-15.2753	-49.5519	10600.0	10616.05	high	4.39034	3.07059	2.63605	0.6994	0.68769	0.16107	0.0	14.55	1.22269	djf	200.0	5.58659	jja	1.30661	0.29761	2.83826	2.50092	0.72378	172.65	0.2527	3.4308	0.5	2.5	20.3	11.6	0.0	550.0	730.4547	40.4111	10616.05	46.6827	21.7773	29.1223	2.4109	0.0	0.0	0.0	0.0069	0.0	crop	46.6827	metamorphics	50.23	acid_plutonic_rocks	37.41	0.0	0.0207	-13.2384	43.3983	18.276	38.3056	9.0248	3078.3278	1895.0686	100.0	95.715	9.4587	1.9833	6.0	0.1185
21300000	-6.456194718844806e-06	0.11139337903464257	-0.2396703210561951	-0.0289068223445217	-0.0045412114783761	0.0415147839425756	0.1591402872150585	0.2396703210561951	1.0	alvorada_do_norte	-14.4769	-46.4906	3760.0	3928.091	high																																																												
21500000	-5.794279886924724e-06	0.049829461971007745	-0.0721592607244339	-0.0349161032985244	0.0115015832816276	0.0343109316205611	0.0596902600016034	0.0721592607244339	2.0	nova_roma_(faz.sucuri)	-13.7625	-46.8375	22600.0	22854.52	high	3.56126	3.25863	2.53345	0.91502	1.02266	0.18458	0.0	16.55	1.2214	djf	217.7	7.69258	jja	0.71246	0.20004	2.50879	2.11108		170.78947	0.2083	2.3046	5.14955	8.16667	0.0	0.0	0.0	419.0	656.0314	39.8514	22854.52	9.2821	40.1392	30.5774	19.8121	0.0314	0.0783	0.0	0.0795	0.0	crop_mosaic	40.1392	unconsolidated_sediments	37.84	carbonate_sedimentary_rocks	18.63	18.63	0.1609	-12.9244	42.5724	22.4384	34.9899	8.5061	3060.5644	858.1858	95.154	82.382	4.1195	1.5841	597.0	10.0449
21560000	-6.764343790999679e-06	0.1462971991203102	-0.2167124503090561	-0.03419046267805	-0.0318804314180233	-0.0141144450061083	0.339432909944684	0.339432909944684	2.0	fazenda_veneza	-13.4986	-46.7803	2840.0	2884.322	high																																																												
21850000	-6.438237983043965e-06	0.1435302376882056	-0.0681117745099686	-0.0592981629067749	-0.0532405273462115	-0.0270994768858577	0.3788286206299114	0.3788286206299114	1.0	uhe_peixe_angical_rio_da_palma	-12.4167	-47.1958	12400.0	12807.49	high																																																												
22050001	-5.695669013320057e-06	0.05476629124149705	-0.0835710925648306	-0.0501087007259158	0.0176851562377485	0.0367214924206658	0.0735855466776221	0.0835710925648306	3.0	peixe	-12.0231	-48.5328	128000.0	129156.2	high	3.91807	3.25277	2.60828	0.8302	0.84374	0.19717	0.0	10.65	1.20339	djf	187.65	8.6078	jja	0.99237	0.25328	2.6676	1.37914	0.76523	171.6	0.3744	2.3473	1.35	9.0	0.0	0.0	0.0	233.0	637.6209	45.5726	129156.2	13.704	30.8762	35.5704	18.8296	0.0542	0.0363	0.0024	0.9269	0.0	forest	35.5704	metamorphics	46.8	unconsolidated_sediments	14.44	6.64	0.0707	-13.4721	46.222	19.8191	33.9597	8.8961	2728.1102	1219.0686	100.0	92.936	4.3743	1.2077	61400.0	131.2466
22500000	-6.695860618967529e-06	0.02001248939443522	-0.0327261873430139	-0.0129037456825171	0.0032968694679941	0.0157939600379417	0.0252606389362514	0.0327261873430139	2.0	miracema_do_tocantins	-9.5681	-48.38	185000.0	187108.3	high	4.08362	3.30205	2.64271	0.80861	0.64467	0.21462	0.0	9.2	1.19481	djf	178.4	8.53589	jja	0.99754	0.24428	2.58029	2.30387	0.72807	178.95	0.2754	2.75286	1.95	19.5	0.5	2.0	0.0	179.0	549.065	39.4378	187108.3	11.1296	32.6865	36.3605	18.898	0.1415	0.0272	0.0025	0.7543	0.0	forest	36.3605	metamorphics	50.08	unconsolidated_sediments	14.05	5.27	0.0684	-13.3657	49.4634	18.3904	32.1497	8.6477	2656.0623	962.8162	100.0	79.206	3.4919	0.959	67023.0	98.3802
22680000	-5.9401823636355695e-06	0.06964904840947708	-0.0504806041187179	-0.046462721588924	-0.0391282470428992	0.0236311644876636	0.1220108526791489	0.1220108526791489	2.0	jatoba_(fazenda_boa_nova)	-9.9953	-47.4725	16900.0	16951.1	high	4.19154	3.46519	2.42262	0.82671	-0.20983	0.28478	0.0	13.35	1.13617	djf	203.05	6.98967	jja	1.42268	0.33942	0.71611	1.27927	0.80012	176.4	0.7438	2.8849	0.45	1.8	0.0	0.0	0.0	224.0	474.7094	25.0511	16951.1	13.7237	27.1833	16.1716	42.7256	0.0298	0.1644	0.0	0.0017	0.0	shrub	42.7256	siliciclastic_sedimentary_rocks	83.14	mixed_sedimentary_rocks	16.78	0.0	0.1926	-11.6315	60.7787	13.4221	25.7851	7.8074	3410.0202	1101.2847	100.0	90.294	0.1074	0.0207	0.0	0.0
22700000	-5.85257366930174e-06	0.0631070449479989	-0.0495115677309129	-0.0454638208408498	-0.0383305745743702	0.0339235230703937	0.1211960730486116	0.1211960730486116	2.0	novo_acordo	-9.9633	-47.6747	18000.0	18075.82	high	4.21337	3.47097	2.44063	0.8238	-0.20881	0.28478	0.0	13.15	1.14348	djf	201.7	7.07719	jja	1.41876	0.33673	0.94374	1.31008	0.78729	176.35	0.7103	2.87296	1.1	2.75	0.0	0.0	0.0	223.0	463.9241	24.7848	18075.82	13.0184	26.6395	17.1257	43.0327	0.0279	0.1542	0.0	0.0016	0.0	shrub	43.0327	siliciclastic_sedimentary_rocks	84.02	mixed_sedimentary_rocks	15.91	0.0	0.1925	-11.8534	60.7763	13.4729	25.7376	7.7703	3356.2307	1111.1865	100.0	92.32	0.1135	0.0219	0.0	0.0
22900000	-5.561673396311023e-06	0.055690938432605586	-0.1204313371396044	-0.0066644882581423	0.0032573283885383	0.018225901815024	0.0882958214055152	0.1204313371396044	1.0	porto_real	-9.3069	-47.9292	44100.0	44065.08	high	4.37235	3.48704	2.62726	0.79752	-0.3489	0.28295	0.0	10.05	1.09239	djf	188.35	7.20268	jja	1.38132	0.31592	1.69695	1.94029	0.76174	181.9	0.5359	3.3235	0.1	2.0	0.0	0.0	0.0	198.0	406.2702	27.0346	44065.08	7.6664	25.5281	27.8372	38.8475	0.0134	0.091	0.0	0.0166	0.0	shrub	38.8475	siliciclastic_sedimentary_rocks	77.53	mixed_sedimentary_rocks	18.47	0.03	0.1874	-13.2783	59.3429	14.3445	26.3125	7.766	2936.008	1168.2097	100.0	96.236	0.3941	0.0782	82.0	0.3691
23100000	-5.5666889334016325e-06	0.04549271074550354	-0.0223676187931158	-0.0208676984806927	-0.013693580142325	-0.0081164503030927	0.1199118881035538	0.1199118881035538	1.0	tupiratins	-8.3917	-48.1114	242000.0	245742.3	high	4.17203	3.34051	2.65564	0.80069	0.42456	0.23031	0.0	7.35	1.16667	djf	171.05	8.88571	jja	1.09122	0.26156	2.27548	2.22	0.75472	182.05	0.3286	2.899	0.75	15.0	0.3	3.0	0.0	168.0	507.8931	36.2178	245742.3	10.2635	31.1783	35.1488	22.6406	0.1127	0.0373	0.0019	0.6169	0.0	forest	35.1488	metamorphics	38.91	siliciclastic_sedimentary_rocks	23.31	4.03	0.0962	-13.4122	51.5869	17.5856	30.8311	8.4949	2678.2978	1001.2703	100.0	88.446	2.8658	0.7195	67105.0	68.5597
23250000	-5.897930416254536e-06	0.05724335744230375	-0.0785986973280834	-0.0352298685859761	0.0193635240803056	0.0403597658906408	0.0796165354682444	0.0796165354682444	1.0	goiatins	-7.7078	-47.3117	10100.0	10025.8	high	4.3244	3.43582	2.73277	0.79452	-0.75116	0.3091	0.0	10.55	1.07653	djf	189.75	5.82055	jja	1.28793	0.29783	0.16675	1.63916	0.77532	186.8	0.5395	3.0526	0.1	1.0	0.0	0.0	0.0	184.0	336.989	27.0438	10025.8	6.0929	19.7004	27.1138	47.0629	0.0075	0.0047	0.0	0.0179	0.0	shrub	47.0629	mixed_sedimentary_rocks	81.54	siliciclastic_sedimentary_rocks	16.23	0.0	0.1907	-13.7651	55.2127	16.7032	28.1016	7.9095	2163.4108	1196.8784	100.0	77.249	2.5691	0.5465	52.0	1.1033
23300000	-6.208018276423223e-06	0.030537732118387523	-0.0198312586326203	-0.0121887086722177	-0.0098875609596024	-0.0029716136864672	0.0795711888259059	0.0795711888259059	1.0	carolina	-7.3375	-47.4731	275000.0	278649.7	high	4.20605	3.35167	2.67157	0.79687	0.26174	0.23948	0.0	6.2	1.14815	djf	165.65	8.76455	jja	1.12702	0.26387	1.78675	2.24122	0.77126	183.88889	0.3627	2.8222	0.0	0.0	0.1017	2.0	0.0	177.0	481.253	34.48	278649.7	9.7219	31.0978	34.0305	24.4294	0.1011	0.0341	0.0017	0.5838	0.0	forest	34.0305	metamorphics	34.54	siliciclastic_sedimentary_rocks	24.02	3.56	0.1074	-13.508	52.1253	17.5366	30.3416	8.4068	2644.1501	990.8184	98.33	96.578	2.7195	0.6611	67167.0	58.5967
23600000	-5.203536323299157e-06	0.03155727466072993	-0.0248591225025537	-0.0153168030694561	-0.0142986703395789	-0.0059362687610609	0.0749359107660286	0.0749359107660286	1.0	tocantinopolis	-6.2886	-47.3919	289000.0	293998.4	high	4.20282	3.35413	2.67469	0.79807	0.18917	0.24343	0.0	5.75	1.13861	djf	162.35	8.65867	jja	1.12714	0.26819	2.17023	2.20976	0.7635	185.2	0.36704	2.9276	0.0	0.0	0.15	3.0	0.0	148.0	471.2398	34.2136	293998.4	9.602	32.3701	33.1175	24.1788	0.0977	0.0328	0.0016	0.5995	0.0	forest	33.1175	metamorphics	32.81	siliciclastic_sedimentary_rocks	25.02	3.38	0.1109	-13.4695	52.1759	17.4948	30.3323	8.4264	2648.2835	997.6942	100.0	93.963	2.6409	0.6419	72567.0	59.996
23700000	-5.980467792188617e-06	0.029748910678327446	-0.0200421289924052	-0.0151853392069963	-0.0142154244210572	-0.0095701816323355	0.0593230911544697	0.0593230911544697	1.0	descarreto	-5.7894	-47.4689	297000.0	302057.1	high	4.19469	3.35408	2.67617	0.7996	0.16039	0.24551	0.0	5.7	1.14	djf	161.05	8.52116	jja	1.20459	0.28717	1.88946	2.28881	0.76451	185.4	0.4051	3.1069	0.0	0.0	0.0	0.0	0.0	121.0	465.1658	33.8089	302057.1	9.6258	32.9681	32.8129	23.8548	0.0953	0.0319	0.0016	0.6097	0.0	crop_mosaic	32.9681	metamorphics	31.97	siliciclastic_sedimentary_rocks	25.96	3.3	0.1123	-13.4807	52.1778	17.4976	30.3277	8.3863	2650.6414	990.7776	100.0	95.715	2.7252	0.6198	72567.0	54.6411
24050000	-5.559169015436565e-06	0.1470787434782113	-0.2919240768167305	-0.0345502058255973	0.0088014687425314	0.08554807982238	0.2146424961228786	0.2919240768167305	1.0	alto_araguaia	-17.3011	-53.2172	2080.0	2094.74	high	4.31838	3.05056	2.73812	0.70641	0.91943	0.1408	0.0	13.75	1.18534	djf	198.45	4.55683	jja	2.33647	0.54394	-0.26491	0.67511	0.89901	176.57895	1.6159	3.5058	0.0	0.0	0.0	0.0	0.0	655.0	776.751	30.2748	2094.74	16.9796	34.3009	26.2026	22.1319	0.0	0.385	0.0	0.0	0.0	crop_mosaic	34.3009	siliciclastic_sedimentary_rocks	85.06	unconsolidated_sediments	12.39	0.0	0.2562	-12.6983	56.0105	12.1527	31.8238	12.8515	2927.0217	2150.3176	98.741	96.632	4.0774	0.4781	0.0	0.0
24200000	-5.897304342177984e-06	0.04685206486951278	-0.0306231482637322	-0.0199955104223815	-0.0184109949092294	0.0004901716771344	0.1208159785412096	0.1208159785412096	1.0	torixoreu	-16.2006	-52.5497	18400.0	18467.51	high	4.14053	3.11908	2.74367	0.7533	0.9641	0.1465	0.0	12.05	1.1699	djf	190.8	5.4359	jja	1.7075	0.41239	1.4901	2.51705	0.70182	171.65	0.4823	4.9908	1.25	2.08333	0.0	0.0	0.0	313.0	640.9592	37.8708	18467.51	23.25	37.8718	26.7598	12.0502	0.0	0.0662	0.0	0.002	0.0	crop_mosaic	37.8718	siliciclastic_sedimentary_rocks	90.21	unconsolidated_sediments	5.03	0.76	0.201	-12.974	57.2338	13.4141	29.3446	9.1532	2878.0595	2219.0348	100.0	73.114	1.9581	0.3142	3.0	0.0261
24500000	-5.3076865917322695e-06	0.05018320949422133	-0.109809970824008	-0.0047237655200713	0.0004555223976661	0.0053360840225646	0.0660424423350458	0.109809970824008	1.0	tesouro	-16.0778	-53.5481	5280.0	5188.323	high	4.20797	3.24914	2.8607	0.77214	1.01913	0.16	0.0	13.55	1.23182	djf	197.75	5.07051	jja	1.73632	0.41263	1.12482	2.26538	0.66807	165.95	0.5059	5.1895	2.9	1.52632	0.0	0.0	0.0	395.0	602.2382	40.3344	5188.323	12.5007	28.7282	26.652	32.1174	0.0	0.0	0.0	0.0018	0.0	shrub	32.1174	siliciclastic_sedimentary_rocks	87.65	unconsolidated_sediments	9.72	0.0	0.1931	-14.5887	57.2533	13.6274	29.1212	9.8443	2660.9919	2523.9149	100.0	77.865	1.5916	0.2511	0.0	0.0
24700000	-5.739210284655405e-06	0.043870485927075896	-0.042197351035882	-0.0159581055517571	-0.0138074811250672	-0.0116149285772041	0.1094459310269634	0.1094459310269634	2.0	barra_do_garcas	-15.8914	-52.2278	36800.0	36855.57	high	4.1708	3.17457	2.79206	0.76114	0.99404	0.15381	0.0	12.1	1.16346	djf	183.7	5.83175	jja	1.56822	0.376	1.00854	2.34843	0.69493	169.0	0.4488	4.7048	1.8	2.4	0.0	0.0	0.0	294.0	576.0003	37.7197	36855.57	18.9202	36.7871	27.3425	16.9103	0.0002	0.0332	0.0	0.0064	0.0	crop_mosaic	36.7871	siliciclastic_sedimentary_rocks	90.31	unconsolidated_sediments	5.25	0.38	0.1955	-13.8297	58.0755	13.3779	28.5405	8.8583	2811.1617	2239.4165	100.0	76.263	1.6967	0.2964	3.0	0.0142
24750000	-6.173868484277107e-06	0.023450428735718867	-0.0426535995979702	-0.0096456046277446	-0.0042141119621128	0.0123340064944654	0.0393108605467814	0.0426535995979702	1.0	sao_ferreira	-16.3025	-51.4692	6430.0	6484.95	high	4.08674	3.04121	2.63364	0.74417	0.92151	0.1414	0.0	15.65	1.25703	djf	208.9	5.24874	jja	1.60447	0.3926	1.94605	2.79179	0.63198	167.1	0.2853	5.3617	7.35	2.67273	32.85	9.95455	0.0	361.0	650.1693	45.8207	6484.95	31.5599	36.2295	23.296	8.9034	0.0084	0.0014	0.0	0.0014	0.0	crop_mosaic	36.2295	siliciclastic_sedimentary_rocks	76.95	metamorphics	11.28	0.1	0.16	-12.9751	54.2863	14.6555	31.0607	8.1466	2872.723	2439.0598	100.0	88.734	1.866	0.3186	244.0	6.4248
24780000	-6.347392808411095e-06	0.013240413565248963	-0.0290505612166804	-0.0050356487771726	0.0027147963570579	0.0088516090072384	0.0143724777088816	0.0290505612166804	1.0	piranhas	-16.4306	-51.8164	1360.0	1334.368	high	4.09701	3.02283	2.69601	0.73781	0.95362	0.1464	0.0	17.55	1.2952	djf	222.5	5.05682	jja	1.70973	0.41731	0.81855	3.56655	0.59383	173.5	0.1333	6.2287	13.35	2.96667	83.65	17.61053	0.0	349.0	650.9607	39.7787	1334.368	25.7666	29.2972	40.4563	4.48	0.0	0.0	0.0	0.0	0.0	forest	40.4563	siliciclastic_sedimentary_rocks	80.11	metamorphics	11.37	0.0	0.1602	-13.0	54.9922	14.3147	30.6932	8.4121	2972.4069	2125.6669	100.0	94.346	1.7731	0.2841	17.0	2.0415
24800000	-5.859363555977409e-06	0.027473890348738112	-0.0629347575687432	-0.0048356954860562	0.0013341090261101	0.0217420989995372	0.0287816662815381	0.0629347575687432	1.0	peres	-15.8897	-51.8528	12000.0	12082.53	high	4.115	3.06283	2.62975	0.74431	0.94241	0.14735	0.0	15.85	1.26295	djf	204.25	5.28461	jja	1.44914	0.35216	1.36703	3.19363	0.63948	169.95	0.2339	4.65986	6.6	3.66667	45.25	11.90789	0.0	293.0	578.2887	41.6315	12082.53	33.6962	31.8623	28.4599	5.9423	0.0045	0.0008	0.0	0.0341	0.0	crop	33.6962	siliciclastic_sedimentary_rocks	55.09	metamorphics	24.64	0.05	0.1305	-12.9405	54.9242	14.5568	30.5211	7.8866	2957.4222	2041.6467	100.0	89.993	2.0076	0.3796	261.0	4.084
24850000	-6.151650487821937e-06	0.044788636017861025	-0.0710997553805131	-0.0168570365688691	-0.0126338674735984	0.0094458722759653	0.0857845022110666	0.0857845022110666	2.0	araguaiana	-15.7381	-51.8281	50100.0	50231.8	high	4.15634	3.14844	2.74348	0.7575	0.9936	0.15229	0.0	11.75	1.21134	djf	183.55	5.81775	jja	1.50551	0.36222	1.00569	2.61992	0.6955	169.4	0.3889	4.5825	1.8	3.27273	0.25	5.0	0.0	287.0	570.8806	38.2538	50231.8	22.9917	35.573	27.4544	13.9202	0.002	0.0246	0.0	0.0342	0.0	crop_mosaic	35.573	siliciclastic_sedimentary_rocks	80.87	unconsolidated_sediments	7.04	0.29	0.1794	-13.573	57.3954	13.6308	28.9694	8.5684	2858.5119	2150.0063	100.0	64.969	1.7828	0.3244	264.0	0.9564
24900000	-6.379829530957265e-06	0.04387889587043417	-0.0324290759386949	-0.0248590542149035	-0.0173396732064418	0.012809344533491	0.1079617360769467	0.1079617360769467	1.0	ivolândia	-16.5125	-50.9967	2060.0	2068.532	high	4.10996	3.08406	2.67517	0.75039	0.88137	0.1395	0.0	17.85	1.26148	djf	223.8	5.06335	jja	1.36483	0.33208	2.28681	1.97387	0.69696	177.4	0.3877	3.7271	2.3	1.7037	0.0	0.0	0.0	447.0	648.3031	39.0452	2068.532	35.912	44.6469	16.8097	2.6315	0.0	0.0	0.0	0.0	0.0	crop_mosaic	44.6469	siliciclastic_sedimentary_rocks	76.86	metamorphics	18.56	0.0	0.1554	-12.99	56.3565	14.3467	29.3003	7.8488	2815.0923	2520.8197	100.0	84.449	4.3655	0.8763	0.0	0.0
24950000	-5.766912913856227e-06	0.018087233755822447	-0.0425050566490852	-0.0042357175809689	0.0026080714057294	0.0117732277663245	0.0177923580094402	0.0425050566490852	1.0	montes_claros_de_goias	-15.9397	-51.3575	10100.0	9084.481	medium	4.13192	3.10082	2.64093	0.75045	0.80202	0.14775	0.0	15.75	1.2753	djf	209.4	5.30798	jja	1.23668	0.2993	2.31536	2.58358	0.68884	173.25	0.2445	3.8754	1.75	2.1875	20.15	10.33333	0.0	304.0	557.7871	41.6624	9084.481	54.847	24.1528	19.8695	1.1306	0.0	0.0	0.0	0.0	0.0	crop	54.847	metamorphics	51.41	siliciclastic_sedimentary_rocks	30.12	0.0	0.0762	-12.9802	52.3749	16.0754	31.5486	8.3034	3009.7284	1810.0998	100.0	90.048	4.3985	0.9744	0.0	0.0
25100000	-8.888177834666852e-06	0.03758679175023646	-0.0271944107805824	-0.0236347238712673	-0.0131865256252586	0.0005712225949637	0.0911786276461539	0.0911786276461539	1.0	balneario_cachoeira_grande	-15.9222	-50.1717	229.0	232.5548	high	4.72158	3.00816	2.83451	0.63711	0.57898	0.15843	0.0	19.6	1.26452	djf	241.95	5.32343	jja	2.24466	0.4754	3.62103	3.4726	0.49808	161.25	0.1252	8.8847	25.2	2.17241	104.15	19.65094	0.0	434.0	658.962	67.2707	232.5548	27.2548	37.495	26.2702	8.9799	0.0	0.0	0.0	0.0	0.0	crop_mosaic	37.495	metamorphics	51.74	acid_plutonic_rocks	48.26	0.0	0.01	-13.0	45.9287	18.9453	35.1136	9.4344	2601.6433	2323.8642	100.0	86.01	4.9261	0.6013	0.0	0.0
25130000	-6.171810871044338e-06	0.008669293022110648	-0.010924343952899	-0.0059014083052785	-0.0008054197964445	0.0045119089838452	0.0166948279765231	0.0166948279765231	1.0	travessao	-15.5358	-50.7047	5310.0	5316.764	high	4.42522	3.13477	2.74231	0.70839	0.62535	0.15455	0.0	17.5	1.27737	djf	214.1	5.43401	jja	1.25625	0.28388	2.57521	3.97187	0.59483	165.5	0.0756	4.4659	12.45	2.89535	99.9	25.94805	0.0	296.0	458.9577	37.8548	5316.764	41.284	30.4369	26.3641	1.9151	0.0	0.0	0.0	0.0	0.0	crop	41.284	acid_plutonic_rocks	67.32	metamorphics	31.6	0.0	0.0118	-12.987	51.3274	16.826	31.845	7.8054	2874.3693	1367.9842	100.0	97.057	3.8288	0.835	0.0	0.0
25200000	-5.649909036455031e-06	0.03224319946736496	-0.0640219614933313	-0.008840984916416	-0.0060515966942453	0.0122455819804438	0.0539486833042394	0.0640219614933313	1.0	aruana	-14.9128	-51.0814	76300.0	77159.9	high	4.15988	3.16192	2.71349	0.7601	0.9688	0.15338	0.0	11.15	1.29651	djf	180.25	6.02843	jja	1.38321	0.33251	1.33865	2.80175	0.72286	174.05	0.3476	3.86272	0.85	3.4	0.65	6.5	0.0	252.0	521.977	34.924	77159.9	31.9308	31.6983	25.8492	9.7528	0.0266	0.019	0.0	0.7234	0.0	crop	31.9308	siliciclastic_sedimentary_rocks	59.99	unconsolidated_sediments	14.75	0.19	0.1554	-13.0995	56.3704	14.0205	29.6055	8.3229	3004.5244	1665.1419	100.0	76.892	3.7409	0.741	276.0	0.7085
25700000	-6.165646252235473e-06	0.03939821623933101	-0.0872793713922981	-0.0088825745788187	-0.005351983571016	0.0260617846155911	0.0505787152534168	0.0872793713922981	1.0	bandeirantes	-13.6897	-50.8	92300.0	93500.15	high	4.18336	3.17866	2.70373	0.75984	0.94247	0.15828	0.0	10.15	1.30968	djf	176.55	6.39674	jja	1.2814	0.30631	2.09037	3.07648	0.75385	182.85	0.2851	3.4919	0.0	0.0	9.45	13.5	0.0	244.0	484.7	31.6218	93500.15	30.5576	32.1814	25.8767	9.4648	0.0499	0.0171	0.0	1.8525	0.0	crop_mosaic	32.1814	siliciclastic_sedimentary_rocks	50.24	unconsolidated_sediments	20.75	0.16	0.1496	-12.8697	56.6677	13.9104	29.4188	8.2795	3072.2578	1306.7644	100.0	76.372	3.7021	0.7915	276.0	0.6311
25950000	-7.351049362311751e-06	0.04519457078943501	-0.0921646301330517	-0.0084796808992503	-0.0023090125879403	0.0045104509421203	0.0804201783768142	0.0921646301330517	1.0	luiz_alves	-13.2097	-50.585	117000.0	118346.0	high	4.20944	3.19705	2.69047	0.7595	0.90854	0.16524	0.0	9.3	1.28276	djf	171.7	6.70703	jja	1.17318	0.2787	2.29302	3.03907	0.76745	183.35	0.2446	3.0043	0.0	0.0	13.4	12.7619	0.0	215.0	453.1871	29.3953	118346.0	26.7454	34.7392	27.364	8.9826	0.0503	0.0142	0.0	2.1043	0.0	crop_mosaic	34.7392	siliciclastic_sedimentary_rocks	39.89	metamorphics	22.14	0.15	0.132	-12.8501	57.0091	13.756	29.2327	8.0363	3031.1048	1096.8067	100.0	82.026	3.4391	0.8031	284.0	0.5604
26040000	0.02514429295356804	0.14363842942599	-0.1272850222520431	-0.08485781915323926	0.0098982592916002	0.0932536178260026	0.2766052162898925	0.2766052162898925	1.0	rio_das_mortes	-15.3147	-54.1758	5230.0	5241.032	high	4.53432	3.17913	2.65989	0.70113	0.94508	0.191	0.0	9.4	1.13939	djf	177.75	4.79111	jja	1.94284	0.42848	1.47278	0.88458	0.90022	184.75	1.1674	3.20986	0.0	0.0	0.0	0.0	0.0	555.0	676.1027	17.2794	5241.032	51.752	29.8358	9.1668	9.1406	0.0314	0.0087	0.0	0.0647	0.0	crop	51.752	unconsolidated_sediments	90.22	siliciclastic_sedimentary_rocks	9.78	0.0	0.2171	-13.2161	52.0284	11.0467	36.9188	12.1506	3420.4366	1181.5571	100.0	79.316	8.4092	1.1858	4.0	0.1076
26050000	-5.555555555507914e-06	0.0938597818341257	-0.1606799956639812	-0.0383025224473812	-0.0151467896306131	0.0365399869919436	0.1860087409443187	0.1860087409443187	2.0	toriqueje	-15.2492	-53.0558	17700.0	17517.37	high	4.57261	3.17422	2.66915	0.69418	1.01304	0.18478	0.0	10.15	1.18023	djf	174.25	5.3698	jja	1.88602	0.41246	1.18175	1.35205	0.85548	179.85	1.0074	3.6	0.0	0.0	0.0	0.0	0.0	346.0	612.3477	19.1696	17517.37	38.1159	34.1523	12.7551	14.6859	0.022	0.0126	0.0	0.2562	0.0	crop	38.1159	unconsolidated_sediments	57.39	siliciclastic_sedimentary_rocks	42.53	0.0	0.2071	-13.9347	54.1445	11.3788	34.4643	11.133	3429.6917	1050.9465	100.0	78.166	7.9698	1.1577	4.0	0.0332
26100000	-5.565573588034136e-06	0.09170436771799276	-0.220134383562198	-0.0127333679693207	0.01394882247117	0.0473496543932658	0.1060270017206923	0.220134383562198	1.0	xavantina	-14.6725	-52.355	25300.0	25171.6	high	4.4776	3.18262	2.72472	0.71079	1.01855	0.18373	0.0	9.95	1.16374	djf	173.6	5.85497	jja	1.83427	0.40965	1.36933	1.39413	0.8423	178.7	0.9527	3.7037	0.0	0.0	0.0	0.0	0.0	263.0	564.0911	22.966	25171.6	29.6042	34.0174	19.3602	16.5737	0.0164	0.0088	0.0	0.4194	0.0	crop_mosaic	34.0174	siliciclastic_sedimentary_rocks	56.56	unconsolidated_sediments	41.46	0.0	0.1989	-14.1253	55.3014	11.8937	32.7974	10.4272	3253.2545	1228.5114	100.0	92.361	6.2651	0.9358	23.0	0.1365
26300000	-5.69859016879777e-06	0.04070544922082156	-0.077876057496547	-0.0076608822791588	-0.0071662212622287	0.0219573322680998	0.0574647946645253	0.077876057496547	2.0	santo_antonio_do_leverger	-12.2919	-50.9636	59300.0	59545.41	high	4.34702	3.24672	2.71546	0.74688	0.92764	0.18881	0.0	8.9	1.19463	djf	166.0	6.32381	jja	1.34233	0.30879	1.64463	2.22824	0.81545	187.3	0.5061	3.0853	0.0	0.0	0.0	0.0	0.0	200.0	413.0677	17.4362	59545.41	19.8983	29.1882	29.0889	17.6354	0.0338	0.0047	0.0	4.1508	0.0	crop_mosaic	29.1882	unconsolidated_sediments	51.74	siliciclastic_sedimentary_rocks	40.83	0.01	0.1928	-12.742	57.5416	12.4702	29.981	9.4348	3365.0044	339.9003	100.0	81.547	3.3089	0.6754	23.0	0.0788
26350000	-6.093622414800866e-06	0.03031540406393204	-0.0603733693989959	-0.0078962894009561	0.0029729713484484	0.0196103344745453	0.0397765112259762	0.0603733693989959	2.0	sao_felix_do_araguaia	-11.6181	-50.6625	194000.0	198426.9	high	4.24774	3.23106	2.68035	0.76065	0.88219	0.1777	0.0	8.55	1.28571	djf	166.45	6.76626	jja	1.18822	0.27902	2.11043	2.90872	0.77557	191.0	0.3323	3.1604	0.0	0.0	0.0	0.0	0.0	190.0	418.8878	23.248	198426.9	22.2421	30.5317	28.3496	14.6995	0.06	0.0115	0.0	4.1056	0.0	crop_mosaic	30.5317	unconsolidated_sediments	37.71	siliciclastic_sedimentary_rocks	36.4	0.11	0.1579	-12.6095	57.0336	13.5197	29.4439	8.9369	3253.9675	606.7061	99.411	93.47	3.1438	0.7249	307.0	0.3567
27500000	-5.566688933444302e-06	0.05501939615658881	-0.069828734005581	-0.0430021973767939	-0.0021672305123768	0.032114010618751	0.1043307257789045	0.1043307257789045	1.0	conceicao_do_araguaia	-8.2694	-49.2594	332000.0	330989.3	high	4.43948	3.28149	2.75784	0.73916	0.55653	0.20568	0.0	4.5	1.07143	djf	147.65	7.57179	jja	1.29307	0.29127	2.91412	4.09989	0.7648	204.05	0.2348	3.5105	0.0	0.0	37.75	32.82609	0.0	162.0	342.5109	19.0738	330989.3	14.1777	27.898	34.2179	17.542	0.0987	0.014	0.0	6.0518	0.0	forest	34.2179	unconsolidated_sediments	39.72	metamorphics	26.96	0.07	0.1406	-12.4755	56.0709	14.9818	28.9467	9.7509	3233.3105	333.5959	100.0	86.311	2.9083	0.6162	328.0	0.21
28150000	-6.276754666832966e-06	0.021978920218048488	-0.0406074445398145	0.0017136190577264	0.0050277314481373	0.0139155791698647	0.0232125144028293	0.0406074445398145	1.0	muricilândia	-7.1464	-48.6108	1580.0	1587.485	high	4.89544	3.28862	3.03011	0.67177	-0.9448	0.2861	0.0	10.4	1.07216	djf	181.45	3.83615	jja	1.77207	0.36198	2.35161	3.17789	0.70851	191.5	0.2981	5.0037	0.5	1.66667	36.0	15.0	0.0	164.0	253.9218	23.6983	1587.485	27.5716	34.1539	36.568	1.653	0.0	0.0	0.0	0.0535	0.0	forest	36.568	siliciclastic_sedimentary_rocks	52.49	metamorphics	39.68	0.0	0.1577	-13.1245	51.514	17.8688	30.6086	7.551	2408.6508	1029.707	100.0	94.921	1.6356	0.2529	0.0	0.0
28300000	-5.647611625032856e-06	0.07031337303171373	-0.0761115904575314	-0.043438426142142	-0.0087989803391625	0.0149245335656309	0.1609502828762241	0.1609502828762241	1.0	xambioa	-6.4097	-48.5422	377000.0	377622.0	high	4.50511	3.28684	2.79054	0.72958	0.36702	0.21379	0.0	3.4	1.04615	djf	139.75	7.53369	jja	1.2946	0.28736	2.44494	4.52687	0.76337	204.05	0.1935	3.44356	0.0	0.0	59.6	42.57143	0.0	124.0	327.9812	19.1372	377622.0	16.4034	28.5756	33.4076	16.0096	0.0908	0.0123	0.0	5.5006	0.0	forest	33.4076	unconsolidated_sediments	36.5	metamorphics	28.9	0.06	0.1334	-12.6208	55.1936	15.5309	29.2744	9.5786	3153.2875	379.202	100.0	89.966	2.7487	0.5817	408.0	0.2287
28850000	-6.143487289167471e-06	0.08149504853072763	-0.0733598646069364	-0.0546121030224322	-0.0195620721695936	0.0171323387712408	0.1978641766239763	0.1978641766239763	1.0	araguatins	-5.6514	-48.1325	388000.0	389438.2	high	4.51041	3.28828	2.7934	0.72904	0.31981	0.21624	0.0	3.25	1.04839	djf	138.75	7.54076	jja	1.33604	0.29621	2.62135	4.52426	0.76234	205.25	0.2081	3.5362	0.0	0.0	59.25	51.52174	0.0	102.0	324.438	19.3063	389438.2	16.8636	28.7255	33.0415	15.7674	0.0888	0.012	0.0	5.5011	0.0	forest	33.0415	unconsolidated_sediments	35.55	metamorphics	28.57	0.06	0.1344	-12.662	55.0362	15.6117	29.351	9.5272	3138.8162	390.7871	100.0	88.939	2.7079	0.5553	416.0	0.219
29050000	-6.836765389544601e-06	0.04504151400145744	-0.0489994763432822	-0.0191761467260702	-0.0161222757246323	-0.0051674582455657	0.1046741851973337	0.1046741851973337	2.0	maraba	-5.3386	-49.1244	703000.0	709486.9	high	4.37991	3.31849	2.7469	0.75766	0.21369	0.23002	0.0	2.95	1.11321	djf	141.6	8.58182	jja	1.2463	0.28455	2.45642	3.18366	0.78672	202.25	0.3092	3.189	0.0	0.0	1.45	9.66667	0.0	83.0	380.3649	25.4031	709486.9	14.1417	30.2382	33.061	18.8443	0.091	0.021	0.0016	3.6013	0.0	forest	33.061	metamorphics	29.61	siliciclastic_sedimentary_rocks	25.84	1.44	0.126	-13.029	53.6307	16.5163	29.8535	9.0023	2936.0204	635.7006	100.0	89.582	2.7333	0.6009	72983.0	22.6131
29100000	-5.796698200689243e-06	0.023391053966454377	-0.0284237115665637	-0.013737335850339	-0.0008470400479754	0.0081129199566254	0.0499195035012942	0.0499195035012942	1.0	fazenda_alegria	-5.4867	-49.2214	37500.0	37541.79	high	5.05129	3.09848	3.32458	0.6134	-0.91876	0.25575	0.0	9.4	1.04444	djf	145.2	3.44893	jja	1.47254	0.29115	2.23936	4.19137	0.69427	202.58824	0.1353	4.8526	3.33419	16.0	92.26326	45.41026	0.0	103.0	270.185	38.1928	37541.79	18.7124	14.9422	63.5211	0.9955	0.0236	0.0048	0.0	1.8004	0.0	forest	63.5211	metamorphics	67.67	acid_plutonic_rocks	14.62	0.0	0.0367	-13.4384	40.2449	21.826	37.9469	9.999	2618.0582	787.7973	95.975	78.7	3.5549	0.6614	2.0	0.0099
29700000	-6.630332444889657e-06	0.02834914030370299	-0.0462859927996776	-0.0167564164468191	-0.0086957481848604	0.0206505955809102	0.0383089868725975	0.0462859927996776	1.0	tucurui	-3.7578	-49.6533	764000.0	774134.6	high	4.44669	3.30698	2.79137	0.7437	0.07381	0.23204	0.0	2.45	1.08889	djf	134.75	8.14199	jja	1.27622	0.28164	2.15485	2.47337	0.78962	201.88889	0.4776	3.27915	0.0	0.0	0.0	0.0	0.0	26.0	366.8549	25.7725	774134.6	14.2654	28.809	35.4571	17.3793	0.0884	0.0197	0.0017	3.9793	0.0	forest	35.4571	metamorphics	32.65	siliciclastic_sedimentary_rocks	24.65	1.32	0.1197	-13.0513	52.6018	16.9102	30.4896	9.0726	2937.2827	645.7947	97.18	94.976	2.7294	0.5859	122521.0	33.9762
30300000	-5.846414686221642e-06	0.03394171827878511	-0.07793081123883	-0.0093986376272366	0.000466353469564	0.0254262143005465	0.032315728432775	0.07793081123883	1.0	serra_do_navio	0.9006	-52.0156	10800.0	10794.65	high																																																												
30400000	-6.0406171094549045e-06	0.04265715745470797	-0.0418681701192274	-0.0299316504985425	-0.0079756373114912	0.0028453147019104	0.0974695150460329	0.0974695150460329	1.0	porto_platon	0.7075	-51.4389	30400.0	30519.53	high	7.27845	3.11529	4.43764	0.42802	-0.75009	0.27433	0.0	6.0	1.08108	djf	122.4	2.78815	son	2.70255	0.37368	0.98888	3.0248	0.76412	238.38889	0.3199	6.5848	0.0	0.0	46.85423	18.11765	0.0	74.0	176.4571	18.741	30519.53	0.0	0.643	93.3304	1.8659	1.035	0.0	0.0	3.1257	0.0	forest	93.3304	acid_plutonic_rocks	58.23	metamorphics	40.23	0.0	0.0119	-12.989	38.1859	20.8716	40.9387	8.3674	3540.1245	467.9997	83.573	95.373	0.1628	0.0165	0.0	0.0
31490000	-6.388633343556241e-06	0.021755936440357938	-0.0116340021421127	-0.0110766254832598	-0.0078539524974659	-0.0035142727265577	0.0568319240169958	0.0568319240169958	2.0	vila_capoeira	-1.8669	-47.0547	3440.0	3421.235	high	6.33146	3.24687	3.48441	0.51281	-0.82477	0.2842	0.0	4.6	1.06977	djf	150.05	3.17903	son	2.22924	0.35209	1.46766	2.75209	0.76476	230.15	0.4989	5.9947	0.0	0.0	11.55	14.4375	0.0	40.0	79.5555	14.8944	3421.235	0.0	7.2601	92.4821	0.194	0.0	0.0	0.0	0.0637	0.0	forest	92.4821	siliciclastic_sedimentary_rocks	75.58	unconsolidated_sediments	20.58	0.0	0.2347	-11.5574	47.4415	18.5692	33.9681	4.5169	6017.4777	285.3977	100.0	96.632	1.3956	0.1715	0.0	0.0
31520000	-5.125997006388827e-06	0.026246776607588087	-0.0497843783914216	-0.0065871044735852	-0.0030512369456159	0.0036159142848019	0.0421585138069058	0.0497843783914216	1.0	bom_jardim	-1.5406	-47.0656	5220.0	4937.209	high	6.38134	3.22261	3.54194	0.50501	-0.81555	0.2842	0.0	3.85	1.02667	djf	138.4	3.04176	son	2.36819	0.37111	1.72747	2.98758	0.75934	230.35	0.4752	6.2962	0.0	0.0	17.75	13.65385	0.0	19.0	75.1045	14.2938	4937.209	0.0	8.8342	90.9122	0.2036	0.0019	0.0	0.0	0.048	0.0	forest	90.9122	siliciclastic_sedimentary_rocks	71.72	unconsolidated_sediments	14.26	0.0	0.2076	-11.8925	47.2829	18.6904	34.0054	4.9836	6127.142	265.9974	100.0	98.015	1.3722	0.1588	0.0	0.0
31600000	0.005702739465420617	0.20039982232515263	-0.1010775652417056	-0.08015627943632275	-0.0620626437922194	-0.0401217510680029	0.4966923470692075	0.4966923470692075	1.0	marambaia	-1.6522	-47.1167	32.7	36.0891	medium	6.61727	3.22339	3.43655	0.48712	-0.76648	0.2988	0.0	6.35	1.05833	djf	191.75	3.65586	son	2.7532	0.41303	0.97508	1.2698	0.86951	210.58824	1.312	4.9653	0.0	0.0	0.51278	3.33333	0.0	64.0	79.3964	8.033	36.0891	0.0	44.8819	55.1181	0.0	0.0	0.0	0.0	0.0	0.0	forest	55.1181	siliciclastic_sedimentary_rocks	65.32	metamorphics	34.68	0.0	0.1762	-11.4151	51.2641	16.7478	31.9852	3.2671	8383.6736	18.7002	80.0	94.456	1.6181	0.161	0.0	0.0
31700000	-5.742176284887956e-06	0.0705739367624632	-0.1553969207285807	0.0071624060801517	0.0157208625655386	0.0517748263037962	0.06334838492476	0.1553969207285807	1.0	badajos	-2.5128	-47.7681	32200.0	32913.4	high	5.69057	3.30639	3.28685	0.58103	-1.07757	0.2673	0.0	8.75	1.06061	mam	155.05	3.90554	jja	1.55462	0.27319	1.03446	1.42132	0.87159	219.65	0.6696	3.1023	0.0	0.0	0.0	0.0	0.0	37.0	145.9951	22.8619	32913.4	4.3921	8.7422	84.4789	1.0152	0.1024	0.0003	0.0	1.2688	0.0	forest	84.4789	siliciclastic_sedimentary_rocks	68.36	unconsolidated_sediments	31.64	0.0	0.2003	-12.2655	43.6008	17.8568	38.5275	8.4361	4173.4584	1117.312	100.0	95.674	1.1489	0.2025	69.0	0.3695
32400000	-8.894581421033504e-06	0.01621706279350319	-0.028957308494307	-0.0082000801829381	0.0020815473572936	0.0101184852308163	0.0205358064493713	0.028957308494307	3.0	sete_ilhas	-1.8581	-46.7089	1800.0	1777.996	high	6.15553	3.16308	3.73525	0.51386	-0.74449	0.3014	0.0	4.75	1.04396	mam	153.25	3.27807	son	2.56306	0.4189	0.72172	4.73828	0.64657	224.57895	0.1633	8.9899	9.80098	3.75	119.62227	22.66667	0.0	35.0	82.7406	14.7702	1777.996	0.0	1.6562	98.2475	0.0588	0.0	0.0	0.0	0.0374	0.0	forest	98.2475	metamorphics	58.9	siliciclastic_sedimentary_rocks	30.19	0.0	0.0834	-13.6313	45.9333	18.3829	35.6616	5.484	5159.2629	287.351	80.0	91.472	0.5781	0.0618	0.0	0.0
32450002	-6.473120367666347e-06	0.01397159142068444	-0.0106697400761713	-0.0087636076594226	-0.0061836087392645	-0.0023571437974535	0.0309579690247149	0.0309579690247149	2.0	tararua_-_ponte	-1.7353	-46.5914	2630.0	2701.876	high																																																												
32620000	-5.841189733510506e-06	0.06065961679562473	-0.0359890993461824	-0.0257694071242729	-0.0199307546740383	-0.0083073957519759	0.1594894029271238	0.1594894029271238	1.0	alto_bonito	-1.8006	-46.3161	32900.0	32825.99	high	4.86056	3.24253	3.24668	0.66711	-0.92413	0.28994	0.0	7.75	1.0473	djf	150.4	3.67277	son	1.2521	0.2576	1.44783	3.18407	0.74982	224.95	0.3081	3.70994	0.4	8.0	0.85	17.0	0.0	11.0	144.3745	19.6898	32825.99	7.8648	8.2259	82.1922	1.4593	0.0835	0.0003	0.0	0.174	0.0	forest	82.1922	siliciclastic_sedimentary_rocks	57.68	unconsolidated_sediments	32.14	0.0	0.1833	-12.7864	43.3483	18.0402	38.5991	7.1297	4389.5109	761.1111	100.0	94.223	1.1879	0.2599	0.0	0.0
32740000	-6.428553061267567e-06	0.025401408369269195	-0.0178195246951659	-0.0142969400587548	-0.0094811656358892	-0.005059079121607	0.0604604000777452	0.0604604000777452	1.0	maracacume	-2.0536	-45.9556	2200.0	2515.847	low																																																												
32830000	-5.968902020478472e-06	0.014102227663662151	-0.0120848184354841	-0.0101810417936952	-0.0052634913857089	0.0083945967250333	0.0298179539445873	0.0298179539445873	2.0	alto_turi	-2.9442	-45.6672	3870.0	3892.607	high	5.4399	3.28741	3.3237	0.60432	-0.89039	0.31415	0.0	10.6	1.09278	mam	184.75	3.91005	son	2.01513	0.36818	1.2655	5.23807	0.65865	228.57895	0.0621	7.41315	8.76479	10.875	128.34878	60.66667	0.0	20.0	72.5495	11.7025	3892.607	6.4912	20.6725	55.5067	16.9737	0.0024	0.0049	0.0	0.2144	0.134	forest	55.5067	siliciclastic_sedimentary_rocks	99.45	unconsolidated_sediments	0.55	0.0	0.1902	-15.1789	42.6008	20.2606	37.1583	6.8086	4337.9314	270.3471	99.261	96.783	0.8035	0.1092	0.0	0.0
33025000	-7.336003638666773e-06	0.005344004482621787	-0.006143070911923	-0.0035865644176225	-0.0013389114378268	0.0031192324714092	0.0079660617374855	0.0079660617374855	7.0	vale_do_pindare	-4.6969	-46.9347	5480.0	5496.676	high	3.61359	3.30773	2.62916	0.91536	-0.69689	0.30382	0.0	16.85	1.22545	djf	212.45	4.88953	jja	0.36527	0.09918	2.49699	3.11949	0.74221	205.53333	0.0452	1.2487	3.40718	9.28571	54.46251	45.17391	0.0	136.0	265.7085	28.3379	5496.676	32.7157	23.6944	42.8012	0.7714	0.0	0.0	0.0	0.0172	0.0	forest	42.8012	unconsolidated_sediments	79.85	siliciclastic_sedimentary_rocks	20.13	0.0	0.2139	-12.9585	49.2512	14.671	36.0677	6.1668	4253.3877	1849.1465	95.387	78.905	1.6631	1.2474	0.0	0.0
33075000	-7.853485376822249e-06	0.02969199967112333	-0.0211836222494734	-0.0166433464687809	-0.0143042816265502	-0.0009247147326818	0.064958129866129	0.064958129866129	1.0	ponte_br-222	-4.2989	-46.4944	4750.0																																																														
33170000	-6.101988638110483e-06	0.025336114610389968	-0.0485724197399876	-0.0080288948113204	0.000715285709446	0.0170349107978911	0.0345977563347502	0.0485724197399876	1.0	esperantina	-4.0339	-45.7786	5930.0	5872.543	high	3.6656	3.26429	2.72976	0.89052	-0.70017	0.31603	0.0	17.6	1.23509	mam	212.9	4.95116	jja	0.34089	0.0945	2.01853	3.46283	0.58929	212.61111	0.0373	1.3598	28.53914	6.29213	104.98326	25.75	0.0	34.0	229.8363	42.4752	5872.543	4.5425	34.035	58.0437	3.2014	0.0	0.0	0.0	0.1532	0.0242	forest	58.0437	unconsolidated_sediments	60.53	siliciclastic_sedimentary_rocks	39.47	0.0	0.2082	-13.1387	44.4701	16.5237	38.9866	7.0334	4176.7084	2967.1019	98.111	93.812	0.8401	0.6752	33.0	4.5163
33190000	-5.761829035055771e-06	0.04353359122837497	-0.1019530406753897	-0.0011090773683914	0.0089491162167962	0.0265540785738229	0.0424282985455631	0.1019530406753897	1.0	pindare-mirim	-3.6597	-45.4661	35400.0	35353.15	high	4.00601	3.28767	2.80056	0.82068	-0.79109	0.30594	0.0	13.3	1.20909	mam	190.15	4.60412	jja	0.53492	0.13353	1.23908	4.39669	0.69625	224.25	0.0705	1.8909	8.05	16.1	95.75	37.54902	0.0	10.0	198.4955	30.4645	35353.15	12.8651	29.1923	50.729	7.0734	0.0019	0.0	0.0	0.1124	0.026	forest	50.729	unconsolidated_sediments	53.78	siliciclastic_sedimentary_rocks	46.19	0.0	0.2061	-13.3865	44.0157	16.901	39.0738	7.1669	4332.756	1780.3188	100.0	94.647	1.1268	0.5771	49.0	0.7099
33205000	-6.646196381824195e-06	0.10024003270934409	-0.0564512544218323	-0.0504376378181954	-0.0402396099185045	-0.0333756267013618	0.246882434052492	0.246882434052492	1.0	fazenda_remanso	-5.7658	-45.98	3730.0	3757.069	high	3.05746	3.35445	2.44574	1.09714	-0.70282	0.3271	0.0	16.6	1.16084	djf	218.5	5.13514	jja	0.58022	0.18977	0.79434	1.15288	0.77593	192.4	0.2823	1.4486	0.15	3.0	0.0	0.0	0.0	173.0	338.0899	28.2745	3757.069	4.0937	46.5987	23.9314	25.3537	0.0	0.0	0.0	0.0226	0.0	crop_mosaic	46.5987	siliciclastic_sedimentary_rocks	84.21	basic_volcanic_rocks	15.79	0.0	0.2002	-13.7577	57.8437	14.6721	27.4835	7.0542	3382.0257	1459.6727	100.0	92.183	1.0228	0.4829	0.0	0.0
33250000	-5.109496510243468e-06	0.12211066370567608	-0.2299824466894572	-0.0204654828351164	0.0068475637369273	0.0672345366373544	0.1612064221984183	0.2299824466894572	1.0	barra_do_corda	-5.5006	-45.2436	13200.0	13186.4	high	2.98654	3.36161	2.37046	1.12559	-0.56847	0.32648	0.0	17.1	1.1875	djf	218.85	5.49874	jja	0.36274	0.12146	0.31389	0.71333	0.87359	194.25	0.2192	0.6623	0.0	0.0	0.0	0.0	0.0	85.0	273.4849	26.3317	13186.4	3.6345	29.0061	43.2153	23.9842	0.0	0.0043	0.0	0.1555	0.0	forest	43.2153	siliciclastic_sedimentary_rocks	87.92	basic_volcanic_rocks	8.3	0.0	0.2011	-14.2826	59.0145	14.2816	26.7004	6.4965	3178.7931	1467.1646	100.0	91.964	0.7278	0.5497	0.0	0.0
33260000	-5.766015106975883e-06	0.1131845497804053	-0.2068940330277591	-0.0191876929478054	0.0058897343923184	0.0734006510408956	0.1697220575679685	0.2068940330277591	1.0	santa_vitoria	-5.1019	-44.9614	15400.0	15465.18	high	3.02361	3.36452	2.39289	1.11275	-0.56455	0.32686	0.0	17.15	1.19512	djf	215.95	5.43955	jja	0.3124	0.10332	0.578	0.67796	0.86312	196.4	0.1894	0.631	0.0	0.0	0.0	0.0	0.0	59.0	259.6246	26.5292	15465.18	4.2122	29.3665	45.281	20.9544	0.0	0.0037	0.0	0.1821	0.0	forest	45.281	siliciclastic_sedimentary_rocks	87.69	basic_volcanic_rocks	7.65	0.0	0.1989	-14.3993	57.9541	14.6856	27.3564	6.4174	3178.4531	1463.6749	100.0	95.277	0.805	0.706	0.0	0.0
33270000	-1.116582364697672e-05	0.09292989290724436	-0.0497369690905351	-0.045229410549187	-0.0388235140758998	-0.032594868801444	0.232584716425256	0.232584716425256	1.0	flores	-5.4194	-44.9278	1320.0	1332.01	high	3.16653	3.36555	2.4589	1.06285	-0.57708	0.33327	0.0	21.35	1.19944	mam	241.05	5.38058	jja	0.11534	0.03548	1.14231	2.33116		198.66667	0.0111	0.3389	5.8852	3.6129	57.27557	45.41667	0.0	105.0	212.1461	26.3259	1332.01	4.2306	29.7913	43.3702	22.5014	0.0	0.0	0.0	0.1065	0.0	forest	43.3702	siliciclastic_sedimentary_rocks	97.88	basic_volcanic_rocks	2.05	0.0	0.1879	-15.1433	58.9122	14.8174	26.2683	6.0093	2486.2883	1662.3807	95.154	90.924	0.9603	2.281	0.0	0.0
33281000	-6.52826739785179e-06	0.09291247751874743	-0.1780570226910083	-0.0150092418961964	0.0139473600438055	0.04891690014612	0.1121231017784621	0.1780570226910083	1.0	pedreiras_ii	-4.57	-44.6106	24000.0	24096.01	high	3.21903	3.38986	2.50892	1.05307	-0.632	0.33	0.0	16.2	1.17818	mam	210.55	5.35751	jja	0.31074	0.09653	1.05834	1.02686	0.78875	200.95	0.1401	0.84696	1.45	4.83333	0.0	0.0	0.0	27.0	221.4075	26.0267	24096.01	5.3889	32.3671	44.9386	16.8527	0.0098	0.0027	0.0	0.4402	0.0	forest	44.9386	siliciclastic_sedimentary_rocks	85.65	mixed_sedimentary_rocks	9.1	0.0	0.1957	-14.6623	55.8779	16.0633	28.0548	6.2704	3188.4679	1350.7456	100.0	97.372	1.1981	1.0564	1033.0	37.798
33290000	-6.200396825419548e-06	0.08401123341228005	-0.1610188349496955	-0.0220369508940142	0.0018608704097616	0.0584996389408152	0.1093232182380894	0.1610188349496955	1.0	bacabal	-4.2194	-44.7653	25500.0	25685.92	high	3.29953	3.39534	2.52881	1.02904	-0.65564	0.33156	0.0	15.75	1.16236	mam	206.95	5.46764	jja	0.34956	0.10594	1.32632	1.41377	0.76436	210.3	0.1315	1.05726	1.7	17.0	0.0	0.0	0.0	16.0	211.7081	25.3264	25685.92	5.0722	33.2149	44.2806	16.9963	0.0092	0.0026	0.0	0.4242	0.0	forest	44.2806	siliciclastic_sedimentary_rocks	86.52	mixed_sedimentary_rocks	8.55	0.0	0.1953	-14.6824	55.4204	16.5719	28.0038	6.3107	3207.5951	1272.347	100.0	89.555	1.2727	0.9975	1033.0	31.5199
33321000	-6.638651557111384e-06	0.010442727964063394	-0.0168780795869972	-0.0025775090041118	-0.0002543176853138	0.0058350339112114	0.0196580696829873	0.0196580696829873	4.0	grajau_ii	-5.8222	-46.1422	4510.0	4509.103	high	3.22459	3.34504	2.53489	1.03736	-0.49437	0.3245	0.0	15.9	1.13571	djf	214.45	4.96412	jja	0.40363	0.12449	2.37956	2.80964	0.51791	194.16667	0.0496	1.5979	22.40952	4.12037	88.53019	24.41667	0.0	144.0	308.1946	23.2741	4509.103	4.7166	59.0081	17.8255	18.4476	0.0	0.0	0.0	0.0021	0.0	crop_mosaic	59.0081	siliciclastic_sedimentary_rocks	56.07	basic_volcanic_rocks	41.25	0.0	0.1497	-13.7506	54.6396	15.3882	29.9604	6.8817	3049.9405	1237.2539	99.288	97.276	0.8681	0.5892	0.0	0.0
33330000	-7.821971919111612e-06	0.04312329274947335	-0.0283540725171778	-0.0231450620780035	-0.01928751472741	-0.0051217707512073	0.0989700043360188	0.0989700043360188	1.0	fortaleza	-5.5944	-46.2403	3590.0	3610.739	high	3.3196	3.35109	2.5675	1.00948	-0.44431	0.3131	0.0	18.75	1.15741	djf	225.0	4.77707	jja	0.36038	0.107	3.16453	3.47225	0.44778	197.11111	0.0233	1.6702	55.01183	13.83333	193.22969	74.31373	0.0	124.0	245.2226	24.8559	3610.739	12.1351	35.0491	49.8206	2.9768	0.0	0.0026	0.0	0.0157	0.0	forest	49.8206	siliciclastic_sedimentary_rocks	43.91	mixed_sedimentary_rocks	42.78	0.0	0.1938	-13.6033	54.7009	15.242	30.0688	6.0578	3265.3685	1260.7314	98.07	95.154	0.7189	0.5465	0.0	0.0
33380000	-5.753177192133003e-06	0.009701471059356533	-0.0115788888947649	-0.0057591987219893	-0.0026359791863653	0.0034721783194688	0.0181302497725691	0.0181302497725691	2.0	aratoi_grande	-3.7722	-45.2181	20300.0	20359.21	high	3.54794	3.3318	2.60187	0.93908	-0.62049	0.32227	0.0	14.1	1.18487	mam	195.0	4.80888	jja	0.4241	0.11888	1.84014	5.08194	0.59607	220.29412	0.0178	1.9726	59.12582	27.7561	166.51867	128.2	0.0	16.0	211.6917	29.4605	20359.21	6.038	45.936	40.3034	7.6793	0.0	0.0005	0.0	0.0428	0.0	crop_mosaic	45.936	siliciclastic_sedimentary_rocks	69.58	unconsolidated_sediments	11.18	0.0	0.1841	-14.2537	50.4582	17.1856	32.3536	6.8414	3611.9862	1327.9942	96.236	94.757	1.0026	0.6477	0.0	0.0
33420000	-5.546403988957241e-06	0.12662518360442884	-0.0813856282429189	-0.0714939301189072	-0.0273924361705186	-0.015556141998825	0.327283287418932	0.327283287418932	1.0	mirador	-6.3708	-44.3603	6060.0	6035.279	high																																																												
33450000	0.025808355962245188	0.230679135863359	-0.2972986523803992	-0.06404561932358915	-0.03254189818455705	0.18254522704466314	0.3375385087718477	0.3375385087718477	2.0	campo_largo	-6.0669	-44.7083	5750.0	5793.192	high	2.98149	3.36574	2.37501	1.12888	-0.52538	0.33475	0.0	18.45	1.19417	djf	227.15	5.76523	jja	0.47346	0.1588	-0.1112	0.54063	0.9499	189.3	0.358	0.6389	0.0	0.0	0.0	0.0	0.0	207.0	379.3048	32.1763	5793.192	0.3343	13.1176	28.9418	57.5901	0.0098	0.0	0.0	0.0065	0.0	shrub	57.5901	siliciclastic_sedimentary_rocks	89.99	mixed_sedimentary_rocks	9.41	0.0	0.2318	-13.7504	61.5419	12.9884	25.4566	7.4017	3359.9499	1638.9081	100.0	90.938	0.2431	0.1407	0.0	0.0
33460000	-5.597819089688754e-06	0.17609480012654058	-0.2835983870187094	-0.0558759713617867	-0.0507998598447312	0.001281331644067	0.3044871076126648	0.3044871076126648	2.0	porto_do_lopes	-6.0072	-44.34	6890.0	6895.587	high	3.02326	3.36678	2.45359	1.11363	-0.5435	0.33475	0.0	17.4	1.19588	djf	225.25	5.73885	jja	0.39381	0.13026	-0.10119	0.43266	0.94055	189.7	0.3024	0.5512	0.0	0.0	0.0	0.0	0.0	193.0	358.3748	31.3348	6895.587	0.3797	13.8598	34.7742	50.9492	0.0082	0.0	0.0	0.0288	0.0	shrub	50.9492	siliciclastic_sedimentary_rocks	83.4	mixed_sedimentary_rocks	16.1	0.0	0.2255	-13.9704	61.104	13.1042	25.7797	7.203	3279.6488	1667.4686	100.0	97.002	0.3217	0.2238	0.0	0.0
33480000	-5.4023975840556e-06	0.13585083363143322	-0.2703497797841738	-0.0194532167239464	0.0054592126469547	0.0902117471764037	0.1801357398970828	0.2703497797841738	1.0	colinas	-6.0208	-44.2486	15000.0	14955.43	high	2.98676	3.36543	2.5332	1.12678	-0.54106	0.3334	0.0	17.25	1.17747	djf	226.8	6.06417	jja	0.307	0.10279	0.04835	0.71332	0.90937	191.95	0.1925	0.51118	0.0	0.0	0.0	0.0	0.0	135.0	365.0068	34.2259	14955.43	1.0904	15.9674	36.2509	46.4627	0.1414	0.0088	0.0	0.0783	0.0	shrub	46.4627	siliciclastic_sedimentary_rocks	75.62	mixed_sedimentary_rocks	22.11	0.0	0.2123	-14.2718	60.3726	13.2913	26.3271	7.2063	3120.6157	2156.8237	100.0	98.645	0.4184	0.3734	0.0	0.0
33520000	-7.748874475970739e-06	0.09343898718686819	-0.0440323514245688	-0.0384929225548059	-0.0350475296543029	-0.0281830432491471	0.2453818880099151	0.2453818880099151	1.0	mendes	-5.7061	-43.5861	5320.0	5308.43	high	3.25385	3.40956	2.76459	1.04785	-0.60791	0.3509	0.0	19.55	1.17771	djf	238.5	6.18677	jja	0.09106	0.02799	2.56565	1.9198	0.51036	201.95	0.0112	0.4035	33.3	12.10909	84.85	41.39024	0.0	121.0	281.6609	34.2441	5308.43	0.7544	26.0894	60.8723	11.9211	0.0053	0.0	0.0	0.3576	0.0	forest	60.8723	mixed_sedimentary_rocks	58.36	siliciclastic_sedimentary_rocks	19.83	0.0	0.1718	-14.5365	57.0957	13.8266	29.0735	7.2327	2838.12	2039.6461	100.0	98.193	0.7452	2.242	0.0	0.0
33530000	-6.125199068974226e-06	0.11647979206567878	-0.2171270188172337	-0.0221632237470037	-0.0017626195245444	0.0700998521458345	0.173652280266475	0.2171270188172337	1.0	montevideu	-5.3372	-43.8844	27300.0	27258.15	high	3.16607	3.38172	2.62651	1.06811	-0.60739	0.34062	0.0	16.3	1.1769	djf	220.4	6.29714	jja	0.18901	0.0597	0.61772	0.78744	0.85927	199.4	0.1119	0.3839	0.1	2.0	0.0	0.0	0.0	97.0	307.7968	31.3565	27258.15	1.6192	19.7721	49.4385	28.9149	0.0784	0.0049	0.0	0.172	0.0	forest	49.4385	siliciclastic_sedimentary_rocks	66.35	mixed_sedimentary_rocks	27.09	0.0	0.1977	-14.5303	59.1474	13.5775	27.2701	6.8838	3097.8196	1907.5638	100.0	97.098	0.6533	0.947	0.0	0.0
33550000	-5.0663951079096825e-06	0.0990484115890852	-0.1888600079753214	-0.0161190791795252	0.0048414851503511	0.065454201492387	0.1504567281346183	0.1888600079753214	1.0	caxias	-4.865	-43.3675	32700.0	32625.93	high	3.25758	3.39582	2.67213	1.04244	-0.6398	0.34493	0.0	15.25	1.15094	djf	215.2	6.2924	jja	0.18114	0.05561	0.83129	0.94385	0.81995	200.85	0.0954	0.44496	0.35	3.5	0.0	0.0	0.0	62.0	282.2293	29.2691	32625.93	1.552	21.0639	52.4064	24.6864	0.0659	0.0041	0.0026	0.2189	0.0	forest	52.4064	siliciclastic_sedimentary_rocks	70.71	mixed_sedimentary_rocks	23.67	0.0	0.1963	-14.636	59.0501	13.9107	27.0351	6.6144	3105.1324	1743.3834	100.0	95.044	0.7106	1.0748	0.0	0.0
33590000	-5.404236921765712e-06	0.07674653500759487	-0.1438315520842147	-0.0085006812221537	0.009225951854998	0.0274931700064861	0.1077106095600368	0.1438315520842147	1.0	codo	-4.4583	-43.875	37200.0																																																														
33620000	-6.892321264910749e-06	0.024963357801629876	-0.0157236441618857	-0.0134377404859645	-0.0112206548742192	0.0012320964665712	0.060796193778361	0.060796193778361	1.0	fazenda_sobral	-4.4653	-43.9333	5560.0	5493.113	high	4.27692	3.4174	2.94997	0.79903	-0.83166	0.3581	0.0	18.55	1.24497	mam	221.35	5.56855	jja	0.57196	0.13053	2.25775	5.10975	0.52362	217.46667	0.0067	3.1033	79.5938	23.61538	208.65503	56.67606	0.0	48.0	123.2289	18.2052	5493.113	0.9874	25.436	60.9509	12.2432	0.0	0.0	0.0	0.3825	0.0	forest	60.9509	siliciclastic_sedimentary_rocks	77.99	mixed_sedimentary_rocks	22.01	0.0	0.19	-15.2	52.7214	20.4289	26.8795	5.3974	3173.119	829.7146	96.838	89.432	2.0119	0.9637	23.0	2.0056
33630000	-6.130944717308072e-06	0.07126428257959806	-0.138087877913057	-0.0107743200039241	0.0070083289148255	0.0337539773505709	0.0853997591047283	0.138087877913057	1.0	coroata	-4.1258	-44.1297	43800.0	43754.68	high	3.49543	3.41498	2.7104	0.97698	-0.70392	0.34941	0.0	13.9	1.16318	mam	204.25	5.9635	jja	0.29658	0.08485	1.60268	1.98059	0.65873	211.6	0.0753	1.15278	16.4	5.125	0.0	0.0	0.0	33.0	238.4379	25.9865	43754.68	1.3066	22.0559	53.9845	22.3866	0.0489	0.003	0.0019	0.2125	0.0	forest	53.9845	siliciclastic_sedimentary_rocks	67.29	mixed_sedimentary_rocks	26.52	0.0	0.1953	-14.6858	57.7771	15.4819	26.7444	6.39	3147.2175	1411.2633	100.0	92.32	0.9623	0.8889	23.0	0.4856
33680000	-5.412134004456205e-06	0.06970758995822493	-0.1308887389664653	-0.0034662097342784	0.0123928557500287	0.0413824846022168	0.0762512144639357	0.1308887389664653	1.0	cantanhede	-3.6278	-44.3792	49900.0	49821.12	high	3.65647	3.4214	2.74963	0.93571	-0.73594	0.35081	0.0	12.65	1.18224	mam	196.7	5.91579	jja	0.3752	0.10167	1.63489	2.59704	0.62197	214.41176	0.0665	1.66394	32.99989	11.31579	42.36266	23.0	0.0	20.0	217.7804	24.5752	49821.12	1.152	22.6201	53.3394	22.6393	0.0436	0.003	0.0017	0.201	0.0	forest	53.3394	siliciclastic_sedimentary_rocks	70.73	mixed_sedimentary_rocks	23.32	0.0	0.1951	-14.7072	56.9993	16.3437	26.6618	6.4015	3230.3218	1273.2004	97.385	92.266	1.0068	0.7352	35.0	0.513
33730000	-7.5191927394781255e-06	0.019367832300982168	-0.0136740389013841	-0.0085863723492558	-0.0064357132750762	-0.0031278142289266	0.049785460788614	0.049785460788614	1.0	munim	-3.5775	-43.7028	4210.0	4226.614	high	4.35811	3.5889	2.86596	0.8235	-0.90974	0.378	0.0	15.2	1.21116	mam	215.55	5.77108	jja	0.53737	0.12296	2.52687	5.95482	0.52673	224.42105	0.0118	2.8187	77.35953	24.33333	200.69069	51.64935	0.0	22.0	88.4571	16.447	4226.614	0.0202	15.5352	73.7734	10.6556	0.0	0.0067	0.0	0.009	0.0	forest	73.7734	siliciclastic_sedimentary_rocks	77.38	unconsolidated_sediments	16.04	0.0	0.2077	-13.6956	56.421	18.0738	25.518	6.761	3387.8586	1001.3147	99.083	87.967	2.6318	1.3418	0.0	0.0
33760000	-6.170782578677723e-06	0.006415632867039496	-0.008980296043352	-0.0017245539924218	-0.0008134450388231	0.0034578742456106	0.0117625792913347	0.0117625792913347	7.0	sao_benedito	-3.3353	-43.5264	3990.0	3977.097	high	4.2159	3.49976	2.88972	0.83013	-0.99478	0.3716	0.0	14.4	1.13386	mam	210.35	5.55746	son	0.47403	0.11279	1.30334	2.79306	0.73869	231.57895	0.0768	1.4821	2.27775	15.0	30.01569	34.88235	0.0	50.0	88.1315	10.1177	3977.097	0.1264	41.9864	43.0933	14.5815	0.0048	0.2076	0.0	0.0	0.0	forest	43.0933	siliciclastic_sedimentary_rocks	58.53	unconsolidated_sediments	41.47	0.0	0.2371	-11.6733	55.3389	19.9693	24.7008	5.9126	3238.6389	445.6933	99.37	95.332	1.5465	0.8938	0.0	0.0
33780000	-5.11255285101113e-06	0.005680311899419452	-0.0054890517971832	-0.0025286237078229	-0.0014880128682678	0.0019579651978487	0.0132981487573219	0.0132981487573219	2.0	nina_rodrigues	-3.4606	-43.9008	12600.0	12610.42	high	4.39431	3.5429	2.90979	0.80625	-0.95549	0.36665	0.0	13.5	1.17391	mam	202.5	5.70423	son	0.59617	0.13567	1.74392	4.06562	0.59609	227.25	0.0404	2.6897	36.3	19.62162	136.3	61.95455	0.0	20.0	82.5929	14.8538	12610.42	0.0519	23.9647	62.0642	13.8049	0.0046	0.0707	0.0	0.0391	0.0	forest	62.0642	siliciclastic_sedimentary_rocks	65.25	unconsolidated_sediments	25.62	0.0	0.2141	-13.2432	54.9134	19.4551	25.6472	6.4315	3395.1241	714.6794	100.0	94.292	1.712	0.7868	0.0	0.0
34020000	-5.177832662827305e-06	0.09981263019586042	-0.1353158268360997	-0.0942071843580728	0.037345115863585	0.0814618579644192	0.1276644209798136	0.1353158268360997	2.0	alto_parnaiba	-9.1131	-45.9261	12900.0	12958.82	high	3.32013	3.47377	2.30009	1.04628	-0.23778	0.28933	0.0	17.1	1.23022	djf	225.85	6.88567	jja	0.72031	0.21695	0.35327	0.92024	0.84124	178.85	0.4617	1.3677	0.0	0.0	0.0	0.0	0.0	276.0	471.5789	31.6634	12958.82	3.8981	37.1444	15.9996	42.8581	0.0325	0.0651	0.0	0.0022	0.0	shrub	42.8581	siliciclastic_sedimentary_rocks	56.29	mixed_sedimentary_rocks	38.43	0.0	0.2026	-12.2253	60.0124	13.9352	26.0451	7.5449	2635.6428	1699.2217	100.0	97.796	0.229	0.0871	0.0	0.0
34060000	-5.170844709192583e-06	0.11892794606388014	-0.0728966101785702	-0.0631307062352297	-0.0499425447854304	-0.0396353114407646	0.2759897362794291	0.2759897362794291	1.0	ribeiro_goncalves	-7.5667	-45.2544	31300.0	31450.87	high	3.42637	3.50959	2.41105	1.02429	-0.441	0.30121	0.0	13.7	1.1913	djf	210.75	7.29239	jja	0.58287	0.17011	0.40487	0.95522	0.84886	180.05	0.3573	1.064	0.0	0.0	0.0	0.0	0.0	199.0	446.6561	31.4946	31450.87	5.4736	24.8	28.8767	40.6657	0.0931	0.0898	0.0	0.0012	0.0	shrub	40.6657	mixed_sedimentary_rocks	73.43	siliciclastic_sedimentary_rocks	24.22	0.0	0.1958	-12.6795	58.6523	14.0698	27.2725	7.5305	2785.3626	1654.6292	100.0	97.029	0.5313	0.2497	0.0	0.0
34090000	-5.891050904586254e-06	0.13459379307248864	-0.2225081781569562	-0.0481779014486504	-0.0442199262745822	0.051067294663859	0.2412779154313555	0.2412779154313555	2.0	fazenda_bandeira	-7.3908	-44.6142	15600.0	15632.27	high	2.76593	3.54422	2.2897	1.28138	-0.44071	0.3062	0.0	17.8	1.21918	djf	233.55	7.29844	jja	0.19391	0.07011	0.43726	0.91908	0.89472	184.05	0.126	0.3123	0.0	0.0	0.0	0.0	0.0	185.0	474.8772	27.546	15632.27	2.4195	20.2619	23.2921	53.7416	0.2192	0.0644	0.0	0.0012	0.0	shrub	53.7416	mixed_sedimentary_rocks	100.0		0.0	0.0	0.19	-13.0	59.4198	13.4345	27.1314	8.0436	3209.2429	1970.5549	100.0	98.864	0.1418	0.2003	0.0	0.0
34130000	-5.877650820528453e-06	0.09487369334945253	-0.1512287960848814	-0.0854309609555808	0.040326331039362	0.0766885439237098	0.0912207939495814	0.1512287960848814	2.0	balsas	-7.5344	-46.0358	9040.0	8993.618	high	3.9895	3.52716	2.43057	0.88411	-0.57093	0.31393	0.0	11.6	1.11538	djf	200.55	6.06808	jja	0.91844	0.23021	0.83371	0.96163	0.85737	184.95	0.5541	1.64886	0.0	0.0	0.0	0.0	0.0	240.0	456.6601	28.4625	8993.618	10.2755	17.1882	21.2176	51.2182	0.0262	0.0743	0.0	0.0	0.0	shrub	51.2182	mixed_sedimentary_rocks	100.0		0.0	0.0	0.19	-13.0415	56.5467	14.5103	28.9409	7.8246	2628.8906	934.0677	100.0	96.29	1.7533	0.523	0.0	0.0
34170000	-5.8776508205207435e-06	0.1026594749336006	-0.0687149220220217	-0.0640521728356062	-0.0281040925553422	-0.000528315930242	0.2527152434388541	0.2527152434388541	1.0	sao_felix_de_balsas	-7.0819	-44.8139	24700.0	24771.65	high	3.44415	3.48194	2.41455	1.01097	-0.54889	0.31667	0.0	12.5	1.13636	djf	199.65	6.66611	jja	0.62324	0.18095	1.23465	1.25771	0.78357	185.35	0.3104	1.4654	0.0	0.0	0.0	0.0	0.0	178.0	382.8255	26.2066	24771.65	7.5331	34.6164	14.4896	43.2943	0.0182	0.0396	0.0061	0.0027	0.0	shrub	43.2943	mixed_sedimentary_rocks	70.5	siliciclastic_sedimentary_rocks	16.9	0.0	0.1951	-12.9851	57.6161	14.7788	27.6015	7.2316	2791.4558	1063.0892	100.0	99.603	2.0187	0.8874	1.0	0.0177
34251000	-6.582411795677476e-06	0.01283782163843138	-0.0083779889135011	-0.0066922911106696	-0.0048847499355329	-0.0016624294410397	0.0329747436725116	0.0329747436725116	1.0	cristino_castro_ii	-8.7925	-44.2058	31000.0	31120.6	high	2.55489	3.48892	2.13797	1.36559	0.31276	0.26073	0.0	21.45	1.33645	djf	246.95	8.23167	jja	0.05385	0.02082	2.10255	3.53101	0.63457	184.11765	0.004	0.1946	9.56898	18.8	92.83946	44.4878	2e-05	249.0	475.9706	29.0143	31120.6	0.8881	57.9922	17.5248	23.4122	0.0368	0.0293	0.0	0.1167	0.0	crop_mosaic	57.9922	siliciclastic_sedimentary_rocks	40.33	unconsolidated_sediments	21.02	0.0	0.1642	-12.6518	57.3917	15.1983	27.4041	7.5978	2523.3764	2364.4916	98.234	93.457	0.5573	2.835	247.0	40.3782
34270000	-6.348118100399986e-06	0.004343369466391553	-0.0057723274838856	-0.0019548624624357	-0.000272505222226	0.0034208245871228	0.0062316166310539	0.0062316166310539	1.0	barra_do_lance	-7.2475	-43.6433	47000.0																																																														
34660000	-5.868647922242016e-06	0.10448232776333728	-0.2284054776266919	-0.016398389452082	0.0030368368416838	0.0265707596418309	0.1728481962602365	0.2284054776266919	1.0	fazenda_veneza	-5.5719	-43.0242	235000.0	236206.3	high	2.60177	3.47469	2.09622	1.33551	-0.27033	0.30469	0.0	14.4	1.23077	djf	214.6	8.11342	jja	0.18877	0.07254	0.87374	1.09261	0.79275	184.6	0.10253	0.42225	0.0	0.0	0.0	0.0	0.0	85.0	392.778	26.8428	236206.3	3.5148	39.9804	17.8039	38.3676	0.0745	0.0352	0.0012	0.2224	0.0	crop_mosaic	39.9804	mixed_sedimentary_rocks	41.54	siliciclastic_sedimentary_rocks	29.31	0.09	0.1728	-12.973	59.4709	14.3968	26.1261	6.7681	2575.9687	2379.6765	99.986	97.919	0.8557	1.2419	6019.0	36.984
34770000	-6.744634643157935e-06	0.03145703121028505	-0.014981722684021	-0.0130809490284522	-0.0115595391154894	-0.0046886455557322	0.0827869279732653	0.0827869279732653	1.0	prata_do_piaui	-5.6664	-42.2136	43400.0	43338.1	high	2.31795	3.49248	1.79183	1.50671	-0.71625	0.39075	0.0	20.1	1.50562	mam	241.9	7.8539	jja	0.12629	0.05448	2.98581	4.77648	0.32731	200.4	0.0019	0.63158	70.85	9.02548	247.95	36.73333	0.0	90.0	391.5857	28.1013	43338.1	3.2638	37.5178	14.366	44.5971	0.0706	0.0501	0.0	0.1345	0.0	shrub	44.5971	siliciclastic_sedimentary_rocks	65.66	metamorphics	15.88	0.0	0.1516	-14.0428	57.6033	17.1338	25.2659	5.603	1621.3921	2266.6842	100.0	88.104	1.4815	3.214	406.0	20.3235
34940000	-1.1102229327666238e-05	0.00685308683847097	-0.010729756729885	-0.0030421573186081	0.0001994933430079	0.0035031009661034	0.0118583812320884	0.0118583812320884	2.0	esperantina	-3.9028	-42.2297	11200.0	11256.86	high	3.86248	3.66569	2.46497	0.94905	-0.91368	0.395	0.0	16.0	1.26482	mam	218.1	6.31259	jja	0.64593	0.16661	3.03137	5.43389	0.43492	218.22222	0.0021	3.87421	81.29009	21.18421	242.55751	57.19048	7e-05	60.0	150.8364	10.8924	11256.86	1.3134	59.389	19.9778	19.2062	0.037	0.0076	0.0	0.069	0.0	crop_mosaic	59.389	siliciclastic_sedimentary_rocks	62.64	mixed_sedimentary_rocks	35.5	0.0	0.1958	-14.7038	58.5359	18.8942	22.5663	4.9549	1956.5019	362.5	99.028	89.487	2.5656	1.0882	73.0	2.7506
34980000	-7.748334108177308e-06	0.010191228600097461	-0.0121350741494416	-0.0068010580122348	-0.0046138364463097	0.0083248617180599	0.0153577309747914	0.0153577309747914	1.0	tinguis	-3.7239	-41.9742	21800.0	21792.43	high	3.56987	3.66128	2.34842	1.02561	-0.91866	0.39859	0.0	14.35	1.28125	mam	214.05	6.78447	son	0.48305	0.13531	2.92815	3.81316	0.45762	220.8	0.0132	2.7057	75.6	17.78824	230.8	64.11111	0.0	25.0	201.1572	17.7553	21792.43	1.5933	63.4703	16.1491	18.4409	0.0473	0.0248	0.0	0.2743	0.0	crop_mosaic	63.4703	siliciclastic_sedimentary_rocks	71.36	mixed_sedimentary_rocks	20.06	0.0	0.1905	-14.2393	58.3839	18.3229	23.2913	5.3063	1843.3767	583.6997	100.0	62.601	4.045	2.2942	306.0	7.964
35260000	-2.2574382590636e-05	0.044674692486785406	-0.0251911995176054	-0.0240626499439605	-0.0184422420735494	-0.0138050511145982	0.105512060410785	0.105512060410785	1.0	groairas	-3.9092	-40.3797	2800.0	2814.468	high	1.7468	3.5523	1.52722	2.0336	-0.8734	0.40864	0.0	24.75	1.61765	mam	275.2	9.06755	son	0.13889	0.07924	2.76675	3.8384	0.29914	203.57895	0.0	0.46455	47.70243	8.7963	272.75749	54.32	0.0014	88.0	307.408	38.5262	2814.468	1.752	18.1458	7.3646	72.1458	0.0606	0.0034	0.0	0.528	0.0	shrub	72.1458	metamorphics	54.91	acid_plutonic_rocks	44.36	0.0	0.0115	-14.0923	54.5966	18.9092	26.5155	5.2278	1718.8534	1174.6311	99.576	85.353	0.6183	1.2197	251.0	175.9224
36045000	-7.517666516313494e-05	0.05115521196098935	-0.0256748004560529	-0.0247832009801609	-0.0220970586651335	-0.017748984591277	0.1279280557568577	0.1279280557568577	1.0	malhada	-6.6461	-39.9617	3460.0	3411.952	high	1.62129	3.39287	1.36412	2.0927	-0.20255	0.3311	0.0	23.15	1.48875	mam	282.65	7.85139	jja	0.03246	0.02002	3.93676		0.20237	207.78947	0.0	0.0767	92.55	54.44118	304.7	81.25333	0.00747	311.0	575.7683	27.4362	3411.952	4.4591	21.3992	6.4064	67.6413	0.0554	0.0028	0.0	0.036	0.0	shrub	67.6413	metamorphics	50.05	acid_plutonic_rocks	23.44	0.0	0.06	-13.4171	52.7867	18.299	28.9269	5.7609	2031.6337	4267.2043	100.0	24.709	0.5693	4.8051	112.0	277.0768
36160000	-1.7167971432500443e-05	0.013230436672423752	-0.0124321731180822	-0.0086617931519548	-0.0046785572449518	0.0006793103632699	0.028389040182743	0.028389040182743	1.0	iguatu	-6.3744	-39.2933	20700.0	20477.87	high	1.77849	3.41455	1.51756	1.91992	-0.34589	0.33699	0.0	23.55	1.54934	mam	274.0	7.61111	jja	0.08659	0.04876	4.00845		0.34043	205.52632	0.0	0.2798	141.10907	97.10345	266.23313	94.875	0.00614	217.0	503.3639	31.5891	20477.87	3.399	33.3817	7.7625	55.2102	0.1567	0.0111	0.0	0.0788	0.0	shrub	55.2102	metamorphics	52.81	acid_plutonic_rocks	26.77	1.92	0.0409	-13.7752	51.7065	19.405	28.8981	5.7814	1707.0906	2610.2093	99.781	29.541	1.2001	3.7971	435.0	67.2087
36250000	-3.260302556076827e-05	0.04501477764904795	-0.0288348956371644	-0.0175884764761681	-0.0165281093018413	-0.0154903798007881	0.1159300982327324	0.1159300982327324	1.0	podimirim	-7.3	-38.9847	4230.0	4284.856	high	2.23144	3.3864	1.78433	1.51759	0.16293	0.3255	0.0	23.55	1.44923	mam	271.45	6.39458	jja	0.0544	0.02438	3.48213		0.21354	200.15	0.0	0.2167	75.9	15.0297	285.2	56.47525	0.0037	334.0	618.7565	27.8151	4284.856	18.211	48.5897	18.7272	14.2283	0.0681	0.1186	0.0	0.0571	0.0	crop_mosaic	48.5897	siliciclastic_sedimentary_rocks	45.77	metamorphics	21.0	18.95	0.1129	-13.1886	51.7248	19.0396	29.2664	6.7919	2492.7134	1589.1006	100.0	63.45	10.1114	50.9203	57.0	66.9915
36290000	-8.877525656066241e-06	0.016147112803320523	-0.0161953301260315	-0.0142142872336812	-0.0074484636426513	0.0104699426061915	0.0276692692768945	0.0276692692768945	1.0	ico	-6.4067	-38.8672	12400.0	12472.62	high	2.41216	3.42711	1.94665	1.42076	-0.08018	0.34022	0.0	23.95	1.43413	mam	264.95	6.54198	jja	0.15192	0.06298	3.5104	4.41122	0.35216	205.8	0.0	0.705	58.25	10.4955	234.9	49.97872	0.00267	152.0	463.9506	32.4221	12472.62	13.9276	49.28	18.7529	17.6497	0.084	0.0416	0.0666	0.1975	0.0	crop_mosaic	49.28	metamorphics	45.24	siliciclastic_sedimentary_rocks	21.48	9.6	0.0754	-13.612	49.7809	20.0033	30.2298	6.5615	2305.4029	1376.8447	100.0	76.81	15.3229	27.6331	172.0	24.8691
36390000	-6.462578439531998e-06	0.03476063098076302	-0.0302761017242091	-0.0119917323124245	-0.009367506798544	0.0004964044414689	0.088081852181072	0.088081852181072	1.0	peixe_gordo	-5.2275	-38.1978	47800.0	48353.43	high	2.02575	3.47331	1.70886	1.71458	-0.35854	0.34939	0.0	23.65	1.51603	mam	260.9	7.2979	son	0.08479	0.04183	2.1311	1.79317	0.42138	206.33333	0.0056	0.2979	27.63454	13.7	169.48851	36.53261	0.00021	37.0	407.8396	30.5348	48353.43	13.1085	36.9859	12.6613	36.5877	0.2537	0.0284	0.0172	0.3574	0.0	crop_mosaic	36.9859	metamorphics	54.47	acid_plutonic_rocks	20.45	3.31	0.0491	-13.7863	51.8178	19.5141	28.6816	5.6701	1816.2741	1739.3971	99.151	95.647	5.559	17.9621	11306.0	755.5143
36580000	-7.148627106199176e-06	0.06300917443729283	-0.1236560792319664	-0.0455452115167767	0.0160606812150688	0.0321003888310076	0.0697603997093075	0.1236560792319664	2.0	morada_nova_ii	-5.1219	-38.4464	17300.0	17260.33	high	1.82561	3.54695	1.6481	1.94288	-0.76116	0.38475	0.0	22.25	1.45902	mam	274.2	7.80085	son	0.07936	0.04347	1.99433	1.5272	0.54167	173.75	0.0076	0.0868	6.1	7.625	37.8	19.89474	3e-05	51.0	328.6463	31.7238	17260.33	8.9897	35.6947	8.1606	46.5682	0.2685	0.0181	0.0	0.3003	0.0	shrub	46.5682	metamorphics	78.42	acid_plutonic_rocks	19.08	0.0	0.0137	-14.0437	52.9434	18.9237	28.1478	5.1372	1379.6694	1413.6997	100.0	98.795	1.4539	5.0193	2556.0	511.2342
37380000	-5.726196202430725e-06	0.06129953071949615	-0.0913149242793465	-0.0624258526668446	0.0158277495959935	0.0582335855497618	0.0634263172977204	0.0913149242793465	2.0	pau_ferrado	-6.9658	-37.9242	8580.0	8566.277	high	2.23729	3.5215	1.88185	1.57401	0.25844	0.31157	0.0	24.3	1.65306	mam	269.95	6.66543	son	0.13561	0.06032	1.99609	0.74959	0.60881	188.05263	0.0297	0.1624	11.07428	12.94118	15.15163	8.36111	4e-05	209.0	457.2839	39.0641	8566.277	11.8171	29.805	20.2067	37.0307	0.2332	0.0165	0.0	0.891	0.0	shrub	37.0307	metamorphics	70.51	acid_plutonic_rocks	24.25	0.0	0.0178	-13.9962	48.0445	22.5606	29.3869	6.922	2194.2401	1874.0412	99.329	82.574	5.9911	12.104	3168.0	747.1578
37410000	-6.070318570355276e-06	0.03802049754943194	-0.0664430947200169	-0.0246874254194888	0.0088207437050591	0.0213452922379334	0.0427046805258017	0.0664430947200169	2.0	sitio_vassouras	-6.7258	-37.7975	15200.0	15163.72	high	2.27715	3.55154	1.88645	1.55964	0.13961	0.31465	0.0	23.8	1.60269	mam	268.25	6.92258	son	0.16828	0.0739	2.90108	1.21698	0.42324	202.1	0.0154	0.6491	25.35	8.59322	114.8	13.83133	0.00017	173.0	404.9194	35.905	15163.72	15.4718	32.1044	19.9171	31.6791	0.1797	0.0124	0.0	0.6354	0.0	crop_mosaic	32.1044	metamorphics	55.34	acid_plutonic_rocks	32.13	0.0	0.0349	-13.8782	47.837	22.5471	29.6049	6.4606	2271.2459	1416.8085	100.0	99.247	8.2438	13.4216	3659.0	392.8544
37470000	-6.39672487687645e-06	0.017265378219364965	-0.0362524565225782	-0.0075605599280334	0.0017164159535884	0.0111963549274028	0.0238452728244717	0.0362524565225782	2.0	jardim_de_piranhas	-6.3781	-37.3525	21600.0	21635.87	high	2.18146	3.52758	1.79858	1.61708	0.0982	0.31797	0.0	23.9	1.64261	mam	268.35	7.44383	son	0.15459	0.0701	2.99762	3.06546	0.37395	206.83333	0.0053	0.5622	39.50426	8.48913	220.6371	44.5102	4e-05	137.0	375.7596	35.9603	21635.87	19.9287	30.4102	21.0983	27.7944	0.1897	0.0135	0.0323	0.5329	0.0	crop_mosaic	30.4102	metamorphics	49.04	acid_plutonic_rocks	40.76	0.0	0.0295	-13.9098	48.2548	22.4985	29.2377	6.0523	2243.8215	1321.4169	98.85	95.181	9.2936	16.4708	3833.0	313.9745
37515000	-7.67341927562762e-05	0.05886435602155874	-0.0399939852270845	-0.0310582453202281	-0.0237055931185537	-0.0142641189758015	0.1402683468774552	0.1402683468774552	1.0	sitio_volta	-6.5936	-36.785	1860.0	1862.662	high																																																												
38170000	-1.437401178671345e-05	0.04707458355036194	-0.0423119058147659	-0.0329235037315187	-0.0193114812597048	0.0346990382946754	0.0969001466387354	0.0969001466387354	1.0	ceara-mirim	-5.63	-35.4214	2400.0	2428.598	high																																																												
38485000	-2.6722248944445163e-05	0.05237792330569478	-0.0306312533150768	-0.0247599408579843	-0.0195371864035652	-0.0096513986371383	0.1345159398819543	0.1345159398819543	1.0	monte_alegre	-6.0631	-35.3119	2560.0	2545.436	high																																																												
38650000	-6.058403004967928e-05	0.05537586201298739	-0.0518743963683872	-0.025037752283685	-0.0149167016123649	-0.010759522277413	0.1335392518823656	0.1335392518823656	1.0	fazenda_alagamar	-6.6053	-35.5289	2170.0	2184.545	high	1.59507	3.35091	1.3938	2.10079	-0.07631	0.2849	0.0	21.7	1.4183	mam	286.9	6.62587	son	0.04385	0.02698	3.14325		0.24402	224.05882	0.0	0.1242	151.44386	97.3	249.70856	77.62903	0.00585	131.0	482.8514	32.524	2184.545	6.135	31.8842	9.6149	52.1199	0.082	0.0648	0.0	0.0993	0.0	shrub	52.1199	metamorphics	78.99	acid_plutonic_rocks	16.11	0.0	0.0182	-13.9241	57.7736	16.7246	25.4937	6.611	2036.391	2838.1571	96.386	32.471	1.5774	9.8562	23.0	65.7852
38830000	-2.621163272263233e-05	0.026165412425433385	-0.0197753864681326	-0.0115513098576792	-0.0089175619582806	0.0003654524328773	0.0669813277613549	0.0669813277613549	1.0	caraubas	-7.7211	-36.5053	5030.0	5025.032	high	1.56729	3.28098	1.4142	2.09341	0.32759	0.2299	0.0	23.2	1.53642	mam	284.95	6.80072	son	0.06327	0.04022	1.73937		0.26562	192.33333	0.0	0.2184	122.94693	55.25	285.4938	68.01205	0.00663	442.0	607.4867	25.6094	5025.032	11.4963	31.5723	14.9054	40.9439	0.9229	0.0	0.0	0.1591	0.0	shrub	40.9439	metamorphics	81.4	acid_plutonic_rocks	10.91	0.0	0.01	-14.1	56.0373	18.0271	25.9719	5.5942	2781.5327	1795.3474	98.864	32.183	3.0963	13.4076	262.0	225.772
38850000	-4.333506673602378e-05	0.03126226287627987	-0.0221105117202764	-0.011886612072019	-0.0102660709038889	0.00136583922825	0.0804052617463151	0.0804052617463151	1.0	poco_de_pedras	-7.3981	-36.4336	3180.0	3191.634	high																																																												
38860000	-1.063773203552987e-05	0.09843653037360088	-0.0523911044393633	-0.0406878988869021	-0.0399280148365191	-0.0301519376645526	0.2544510957673256	0.2544510957673256	1.0	bodocongo	-7.5283	-35.9997	13700.0	13680.13	high	1.36145	3.25871	1.24103	2.39356	0.26095	0.2558	0.0	23.4	1.55482	mam	284.9	7.54702	son	0.02165	0.01592	1.9886	3.77338	0.37386	222.21053	0.0	0.04132	23.55318	7.81667	205.04823	36.78378	0.0018	327.0	555.7937	21.4759	13680.13	15.0759	34.176	14.9094	34.7167	0.5855	0.1204	0.1858	0.2305	0.0	shrub	34.7167	metamorphics	81.98	acid_plutonic_rocks	13.9	0.0	0.0114	-14.0719	56.7874	17.9173	25.3113	5.261	2112.9231	2224.1237	99.562	70.007	3.1678	40.0902	1287.0	1190.6006
38895000	-8.88391389712237e-06	0.029923435305985017	-0.0228483727711999	-0.0188137441360901	-0.0109794390595382	0.0034693548604775	0.0727606815567751	0.0727606815567751	1.0	ponte_da_batalha	-7.13	-35.0475	19000.0	19303.02	high																																																												
39084010	-1.5481553728713404e-05	0.058397625216281994	-0.0270972703328564	-0.0266297413410694	-0.0237157870222735	-0.0062261826163813	0.1533381247205806	0.1533381247205806	1.0	nazare_da_mata	-7.7542	-35.2331	692.0	687.3298	high	2.77274	3.33789	2.17111	1.20382	-0.44805	0.28305	0.0	18.1	1.22297	mam	272.65	5.12982	son	0.37049	0.13289	2.03942	6.19257		260.52941	0.0	1.4822	50.0746	7.37984	200.03539	39.20619	0.0006	66.0	272.3517	37.7784	687.3298	9.0996	84.1853	1.8227	4.865	0.0	0.0	0.0	0.0274	0.0	crop_mosaic	84.1853	metamorphics	53.81	acid_plutonic_rocks	44.39	0.0	0.0143	-14.0415	52.0865	17.6012	30.3083	10.3087	2368.8971	2210.369	95.058	86.543	17.5588	12.9845	0.0	0.0
39185000	-8.086689309445491e-06	0.07047011862671157	-0.1165321790700948	-0.0279955051672519	0.0021225867229243	0.0472675706891778	0.0886572860607987	0.1165321790700948	1.0	tiuma	-7.9806	-35.0792	7260.0	7291.783	high	1.98817	3.30142	1.6754	1.66053	-0.20556	0.27555	0.0	20.75	1.32588	mam	260.75	4.67713	son	0.14646	0.0728	1.05148	1.39195		248.0	0.0159	0.4538	14.28851	5.23077	23.8492	15.13333	0.00029	52.0	424.8369	43.2818	7291.783	11.6722	58.2347	8.4152	21.2806	0.1445	0.1354	0.0116	0.1019	0.0039	crop_mosaic	58.2347	acid_plutonic_rocks	62.92	metamorphics	35.17	0.15	0.0142	-14.0244	55.1	17.492	27.4341	8.7532	2287.2657	2787.9767	95.181	92.745	15.0122	28.0818	826.0	211.8982
39360000	-5.5859992514879624e-06	0.024517328959390464	-0.0206362085365673	-0.0176280022393307	-0.0110923065076291	0.0158284445288977	0.0400366379831805	0.0400366379831805	2.0	engenho_tabocas	-8.2819	-35.3647	2960.0	2932.417	high	1.85328	3.30687	1.39168	1.78433	-0.15817	0.26405	0.0	20.15	1.34333	mam	262.85	4.84963	son	0.20927	0.11233	1.85928	2.6945	0.57618	247.42105	0.0335	0.6965	12.89355	2.90909	45.53034	10.04444	0.0	278.0	686.5217	45.3518	2932.417	20.6905	59.1992	6.2385	13.1792	0.2565	0.0834	0.3526	0.0	0.0	crop_mosaic	59.1992	acid_plutonic_rocks	66.78	metamorphics	33.22	0.0	0.01	-14.0529	55.7176	17.0939	27.2026	9.9535	2682.6477	3421.5572	99.275	92.005	9.5124	12.4532	80.0	35.7155
39540000	-1.788652786722499e-05	0.052363383770270326	-0.0324973369583659	-0.024830252956039	-0.0220936855481954	-0.012736547297289	0.1311979502471585	0.1311979502471585	1.0	capivara	-8.4975	-35.9153	2610.0	2609.624	high	1.8353	3.26149	1.42301	1.77709	-0.1553	0.2924	0.0	22.05	1.29326	mam	273.25	5.17519	son	0.09185	0.04963	2.71359	17.29427	0.40817	216.375	0.0	0.3058	35.5154	6.66346	179.98569	39.90909	0.00333	386.0	631.3418	32.158	2609.624	30.9752	55.3904	4.8003	8.0245	0.0324	0.7701	0.0	0.0072	0.0	crop_mosaic	55.3904	acid_plutonic_rocks	77.68	metamorphics	22.32	0.0	0.01	-14.1	58.0288	16.3732	25.5999	9.6202	3010.1423	1950.5531	97.563	88.364	4.6718	13.9356	4.0	4.5722
39560000	-5.397149225801481e-06	0.027153558489446252	-0.0261857695534492	-0.0173946817109075	-0.0018571699677191	0.0067966687898073	0.0642490639367376	0.0642490639367376	1.0	palmares	-8.6794	-35.5769	4910.0	4933.947	high	2.31747	3.28501	1.7381	1.4175	-0.31468	0.2892	0.0	19.45	1.301	mam	254.85	4.46713	son	0.50671	0.21865	1.55662	2.14107	0.65966	249.25	0.1021	1.4678	4.45	2.11905	17.9	6.75472	0.0	110.0	553.7925	42.8912	4933.947	20.3387	63.1833	4.5875	11.4337	0.0171	0.4072	0.0	0.0323	0.0	crop_mosaic	63.1833	acid_plutonic_rocks	72.45	metamorphics	26.93	0.0	0.0115	-13.8013	53.9679	16.9293	29.093	10.7525	3013.9698	2303.3189	100.0	97.153	9.5927	5.1867	403.0	44.1633
39770000	-6.063031273133791e-06	0.02117642323232855	-0.0215525973145063	-0.0195922958340289	-0.0051880123905256	0.0095737328377751	0.0429075793660307	0.0429075793660307	1.0	fazenda_boa_fortuna	-9.4672	-35.8597	3560.0	3579.766	high	2.67343	3.36293	2.38153	1.25791	-0.46119	0.29205	0.0	17.8	1.26241	mam	252.4	4.47518	son	0.74287	0.27787	1.15032	2.72162	0.56865	262.5	0.1029	2.29242	8.75	1.96629	42.35	11.92958	0.0	49.0	509.593	46.1785	3579.766	10.7879	78.2908	5.3233	5.4672	0.0758	0.0262	0.0	0.0287	0.0	crop_mosaic	78.2908	metamorphics	75.93	acid_plutonic_rocks	17.33	0.0	0.0274	-13.2245	52.576	16.6049	30.7944	11.6393	3523.7072	2604.2283	100.0	96.304	27.7252	10.2251	15.0	1.5454
39980000	-7.689350249911546e-06	0.017916376124531286	-0.0370161548335313	-0.0085919688141632	0.0037381568285416	0.0157668508381882	0.0174844506597635	0.0370161548335313	1.0	camacari	-10.0311	-36.3036	1440.0	1484.357	high																																																												
40040000	-3.717707067012111e-06	0.03584403209080488	-0.0231135757481475	-0.0205509191060368	-0.0135005152951238	0.0029817820320069	0.0910817593135094	0.0910817593135094	2.0	fazenda_ajudas	-20.0953	-46.0622	244.0	243.9665	high	4.36021	2.88393	2.58974	0.66142	1.13694	0.0902	0.0	20.25	1.31494	djf	245.35	5.62085	jja	1.85906	0.43472	2.71611	2.12199		169.64706	0.4437	5.18804	3.99986	1.85366	8.31549	7.52381	0.0	750.0	849.125	38.1836	243.9665	2.3009	79.4375	5.4054	12.8561	0.0	0.0	0.0	0.0	0.0	crop_mosaic	79.4375	mixed_sedimentary_rocks	60.63	metamorphics	33.98	0.0	0.1295	-13.0	39.3287	17.8194	42.8147	11.1397	2378.7536	1504.1481	79.562	84.025	4.7038	0.6932	0.0	0.0
40053000	-9.347279474299626e-06	0.06853586368759768	-0.0355679724353578	-0.0346788484704397	-0.0300370181149172	-0.0089296510526509	0.174110914574094	0.174110914574094	1.0	calciolândia	-20.2372	-45.6597	296.0	300.6643	high	4.01728	2.91759	2.65186	0.72626	1.13738	0.0838	0.0	22.65	1.33235	djf	254.5	5.73198	jja	1.17949	0.2883	2.21437	2.90369	0.54244	150.5	0.1032	4.94001	24.58315	6.54795	101.0069	29.31343	0.0	648.0	778.4833	42.2966	300.6643	19.5614	71.0729	7.1725	2.1932	0.0	0.0	0.0	0.0	0.0	crop_mosaic	71.0729	carbonate_sedimentary_rocks	68.55	mixed_sedimentary_rocks	29.13	68.55	0.1008	-13.0	33.9152	18.8552	47.1936	11.6608	2440.9362	2027.2438	87.214	96.81	4.8828	1.1342	0.0	0.0
40060001	-6.1927940648664875e-06	0.05198005277706554	-0.0948851504836157	-0.0361208439529122	0.0185608685966093	0.039488824396742	0.056450824905113	0.0948851504836157	2.0	tapirai_jusante	-19.8881	-46.0181	569.0	569.7409	high	4.34424	2.84769	2.65923	0.65551	1.13868	0.0904	0.0	20.75	1.32588	djf	242.6	5.44557	jja	1.92701	0.44358	2.25647	1.63059	0.77452	174.9	0.6709	5.2561	0.0	0.0	0.0	0.0	0.0	673.0	980.4051	56.8684	569.7409	2.81	58.2575	21.9937	16.8446	0.0	0.0	0.0	0.0942	0.0	crop_mosaic	58.2575	metamorphics	60.59	mixed_sedimentary_rocks	35.58	0.21	0.078	-13.5798	41.5154	16.8407	41.6133	13.8605	2299.62	2535.728	89.993	99.576	11.8988	1.6917	0.0	0.0
40070000	-5.200613672446921e-06	0.03810000293218204	-0.0596391177030016	-0.0344725418844352	0.0092917187962964	0.0193775826268065	0.0493935257754503	0.0596391177030016	2.0	ponte_do_chumbo	-19.7761	-45.4792	10000.0	9876.346	high																																																												
40100000	-4.47667651537784e-06	0.030971337536173812	-0.0471629754134572	-0.0235820516865415	0.0087720174495548	0.0253180657879128	0.0374552730061972	0.0471629754134572	2.0	porto_das_andorinhas	-19.2814	-45.2753	14000.0	13864.51	high	4.17681	2.92919	2.5663	0.7013	1.1435	0.08783	0.0	18.3	1.37594	djf	218.9	5.60563	jja	1.4741	0.35293	2.36215	2.40896	0.7139	167.55	0.3774	4.4371	1.4	9.33333	1.8	7.2	0.0	619.0	788.1524	38.3948	13864.51	8.4955	72.5118	4.3238	14.4725	0.0311	0.0006	0.0	0.1649	0.0	crop_mosaic	72.5118	mixed_sedimentary_rocks	48.73	unconsolidated_sediments	21.91	3.35	0.1417	-13.3307	42.1313	16.7796	41.057	10.9037	2394.7463	1709.2155	89.993	98.316	5.7119	1.0616	0.0	0.0
